$GPVTG,,T,,M,,N,,K,N*2C
$GPGSA,A,1,,,,,,,,,,,,,,,*1E
$GNGSA,A,1,,,,,,,,,,,,,,,*00
$BDGSA,A,1,,,,,,,,,,,,,,,*0F
$GPGGA,,,,,,0,,,,,,,,*66
$GPRMC,,V,,,,,,,,,,N*53
$GPVTG,,T,,M,,N,,K,N*2C
$GPGSA,A,1,,,,,,,,,,,,,,,*1E
$GNGSA,A,1,,,,,,,,,,,,,,,*00
$BDGSA,A,1,,,,,,,,,,,,,,,*0F
$GPGGA,,,,,,0,,,,,,,,*66
$GPRMC,,V,,,,,,,,,,N*53
$GPVTG,,T,,M,,N,,K,N*2C
$GPGSA,A,1,,,,,,,,,,,,,,,*1E
$GNGSA,A,1,,,,,,,,,,,,,,,*00
$BDGSA,A,1,,,,,,,,,,,,,,,*0F
$GPGGA,,,,,,0,,,,,,,,*66
$GPRMC,,V,,,,,,,,,,N*53
$GPGSV,1,1,01,03,,,35*7D
$GLGSV,1,1,01,,,,30*67
$BDGSV,1,1,01,203,,,28*52
$GPVTG,,T,,M,,N,,K,N*2C
$GPGSA,A,1,,,,,,,,,,,,,,,*1E
$GNGSA,A,1,,,,,,,,,,,,,,,*00
$BDGSA,A,1,,,,,,,,,,,,,,,*0F
$GPGGA,,,,,,0,,,,,,,,*66
$GPRMC,,V,,,,,,,,,,N*53
$GPGSV,1,1,04,03,,,36,07,,,32,11,,,30,30,,,31*7F
$GLGSV,1,1,01,,,,30*67
$BDGSV,1,1,01,203,,,29*53
$GPVTG,,T,,M,,N,,K,N*2C
$GPGSA,A,1,,,,,,,,,,,,,,,*1E
$GNGSA,A,1,,,,,,,,,,,,,,,*00
$BDGSA,A,1,,,,,,,,,,,,,,,*0F
$GPGGA,,,,,,0,,,,,,,,*66
$GPRMC,,V,,,,,,,,,,N*53
$GPGSV,1,1,04,03,,,38,07,,,34,11,,,29,30,,,34*7A
$GLGSV,1,1,01,,,,29*6F
$BDGSV,1,1,01,203,,,31*5A
$GPVTG,,T,,M,,N,,K,N*2C
$GPGSA,A,1,,,,,,,,,,,,,,,*1E
$GNGSA,A,1,,,,,,,,,,,,,,,*00
$BDGSA,A,1,,,,,,,,,,,,,,,*0F
$GPGGA,,,,,,0,,,,,,,,*66
$GPRMC,,V,,,,,,,,,,N*53
$GPGSV,2,1,06,01,,,37,03,,,37,07,,,32,11,,,27*7D
$GPGSV,2,2,06,28,,,31,30,,,33*74
$GLGSV,1,1,02,,,,23,,,,30*65
$BDGSV,1,1,01,203,,,29*53
$GPVTG,,T,,M,,N,,K,N*2C
$GPGSA,A,1,,,,,,,,,,,,,,,*1E
$GNGSA,A,1,,,,,,,,,,,,,,,*00
$BDGSA,A,1,,,,,,,,,,,,,,,*0F
$GPGGA,,,,,,0,,,,,,,,*66
$GPRMC,,V,,,,,,,,,,N*53
$GPGSV,2,1,07,01,,,36,03,,,36,07,,,31,11,,,26*7E
$GPGSV,2,2,07,17,,,29,28,,,31,30,,,31*7A
$GLGSV,1,1,02,,,,30,,,,28*6E
$BDGSV,1,1,01,203,,,28*52
$GPVTG,,T,,M,,N,,K,N*2C
$GPGSA,A,1,,,,,,,,,,,,,,,*1E
$GNGSA,A,1,,,,,,,,,,,,,,,*00
$BDGSA,A,1,,,,,,,,,,,,,,,*0F
$GPGGA,,,,,,0,,,,,,,,*66
$GPRMC,,V,,,,,,,,,,N*53
$GPGSV,2,1,08,01,,,36,03,,,36,07,,,30,11,,,25*73
$GPGSV,2,2,08,17,,,27,22,,,32,28,,,31,30,,,31*7A
$GLGSV,1,1,02,,,,28,,,,29*66
$BDGSV,1,1,01,203,,,27*5D
$GPVTG,,T,,M,,N,,K,N*2C
$GPGSA,A,1,,,,,,,,,,,,,,,*1E
$GNGSA,A,1,,,,,,,,,,,,,,,*00
$BDGSA,A,1,,,,,,,,,,,,,,,*0F
$GPGGA,,,,,,0,,,,,,,,*66
$GPRMC,,V,,,,,,,,,,N*53
$GPGSV,2,1,08,01,,,37,03,,,37,07,,,31,11,,,27*70
$GPGSV,2,2,08,17,,,29,22,,,32,28,,,32,30,,,32*74
$GLGSV,1,1,02,,,,29,,,,30*6F
$BDGSV,1,1,01,203,,,28*52
$GPVTG,,T,,M,,N,,K,N*2C
$GPGSA,A,1,,,,,,,,,,,,,,,*1E
$GNGSA,A,1,,,,,,,,,,,,,,,*00
$BDGSA,A,1,,,,,,,,,,,,,,,*0F
$GPGGA,,,,,,0,,,,,,,,*66
$GPRMC,,V,,,,,,,,,,N*53
$GPGSV,2,1,08,01,,,37,03,,,37,07,,,31,11,,,27*70
$GPGSV,2,2,08,17,,,29,22,,,35,28,,,31,30,,,31*73
$GLGSV,1,1,03,,,,29,,,,32,,,,26*68
$BDGSV,1,1,01,203,,,29*53
$GPVTG,,T,,M,,N,,K,N*2C
$GPGSA,A,1,,,,,,,,,,,,,,,*1E
$GNGSA,A,1,,,,,,,,,,,,,,,*00
$BDGSA,A,1,,,,,,,,,,,,,,,*0F
$GPGGA,,,,,,0,,,,,,,,*66
$GPRMC,,V,,,,,,,,,,N*53
$GPGSV,2,1,08,01,,,36,03,,,36,07,,,31,11,,,27*70
$GPGSV,2,2,08,17,,,28,22,,,35,28,,,31,30,,,33*70
$GLGSV,1,1,03,,,,29,,,,30,,,,27*6B
$BDGSV,1,1,01,203,,,28*52
$GPVTG,,T,,M,,N,,K,N*2C
$GPGSA,A,1,,,,,,,,,,,,,,,*1E
$GNGSA,A,1,,,,,,,,,,,,,,,*00
$BDGSA,A,1,,,,,,,,,,,,,,,*0F
$GPGGA,,,,,,0,,,,,,,,*66
$GPRMC,,V,,,,,,,,,,N*53
$GPGSV,2,1,08,01,,,40,03,,,38,07,,,37,11,,,32*7D
$GPGSV,2,2,08,17,,,33,22,,,37,28,,,36,30,,,36*7A
$GLGSV,1,1,03,,,,33,,,,33,,,,38*6D
$BDGSV,1,1,01,203,,,29*53
$GPVTG,,T,,M,,N,,K,N*2C
$GPGSA,A,1,,,,,,,,,,,,,,,*1E
$GNGSA,A,1,,,,,,,,,,,,,,,*00
$BDGSA,A,1,,,,,,,,,,,,,,,*0F
$GPGGA,,,,,,0,,,,,,,,*66
$GPRMC,,V,,,,,,,,,,N*53
$GPGSV,3,1,10,01,,,39,03,,,40,07,,,38,11,,,34*7D
$GPGSV,3,2,10,17,,,39,22,,,35,28,,,39,30,,,41*75
$GPGSV,3,3,10,41,,,38,50,,,33*73
$GLGSV,1,1,04,,,,37,,,,32,,,,35,,,,36*67
$BDGSV,1,1,01,203,,,32*59
$GPVTG,,T,,M,,N,,K,N*2C
$GPGSA,A,1,,,,,,,,,,,,,,,*1E
$GNGSA,A,1,,,,,,,,,,,,,,,*00
$BDGSA,A,1,,,,,,,,,,,,,,,*0F
$GPGGA,,,,,,0,,,,,,,,*66
$GPRMC,,V,,,,,,,,,,N*53
$GPGSV,3,1,10,01,,,43,03,,,43,07,,,38,11,,,35*72
$GPGSV,3,2,10,17,,,35,22,,,36,28,,,36,30,,,39*7A
$GPGSV,3,3,10,41,,,35,50,,,29*75
$GLGSV,2,1,05,,,,35,,,,36,,,,24,,,,34*61
$GLGSV,2,2,05,,,,37*64
$BDGSV,1,1,01,203,,,32*59
$GPVTG,,T,,M,,N,,K,N*2C
$GPGSA,A,1,,,,,,,,,,,,,,,*1E
$GNGSA,A,1,,,,,,,,,,,,,,,*00
$BDGSA,A,1,,,,,,,,,,,,,,,*0F
$GPGGA,,,,,,0,,,,,,,,*66
$GPRMC,,V,,,,,,,,,,N*53
$GPGSV,3,1,10,01,,,40,03,,,42,07,,,35,11,,,33*7B
$GPGSV,3,2,10,17,,,37,22,,,37,28,,,36,30,,,39*79
$GPGSV,3,3,10,41,,,34,50,,,30*7C
$GLGSV,2,1,05,,,,32,,,,36,,,,26,,,,37*67
$GLGSV,2,2,05,,,,36*65
$BDGSV,1,1,01,203,,,32*59
$GPVTG,,T,,M,,N,,K,N*2C
$GPGSA,A,1,,,,,,,,,,,,,,,*1E
$GNGSA,A,1,,,,,,,,,,,,,,,*00
$BDGSA,A,1,,,,,,,,,,,,,,,*0F
$GPGGA,,,,,,0,,,,,,,,*66
$GPRMC,,V,,,,,,,,,,N*53
$GPGSV,3,1,11,01,,,35,03,,,36,07,,,30,11,,,32*7F
$GPGSV,3,2,11,17,,,30,22,,,31,28,,,31,30,,,34*73
$GPGSV,3,3,11,40,,,32,41,,,29,50,,,30*74
$GLGSV,2,1,05,,,,26,,,,28,,,,26,,,,34*6E
$GLGSV,2,2,05,,,,26*64
$BDGSV,1,1,01,203,,,28*52
$GPVTG,,T,,M,,N,,K,N*2C
$GPGSA,A,1,,,,,,,,,,,,,,,*1E
$GNGSA,A,1,,,,,,,,,,,,,,,*00
$BDGSA,A,1,,,,,,,,,,,,,,,*0F
$GPGGA,,,,,,0,,,,,,,,*66
$GPRMC,,V,,,,,,,,,,N*53
$GPGSV,4,1,16,01,38,036,42,03,30,106,43,07,36,181,37,11,23,039,37*73
$GPGSV,4,2,16,17,39,307,34,22,17,068,39,28,49,350,37,30,57,217,40*71
$GPGSV,4,3,16,40,,,31,41,,,34,50,,,30,06,27,219,*42
$GPGSV,4,4,16,08,,,,09,,,,13,,,,19,20,278,*4A
$GLGSV,2,1,08,70,08,078,32,75,72,180,34,,21,260,26,85,21,023,38*61
$GLGSV,2,2,08,71,08,126,31,74,18,157,,86,46,324,,72,,,*51
$BDGSV,4,1,13,203,65,165,30,201,43,116,,202,51,233,,204,24,102,*6B
$BDGSV,4,2,13,205,31,251,,206,16,154,,207,52,163,,208,50,002,*67
$BDGSV,4,3,13,209,06,182,,210,73,206,,211,37,289,,212,45,009,*64
$BDGSV,4,4,13,214,,,*5D
$GPVTG,,T,,M,,N,,K,N*2C
$GPGSA,A,1,,,,,,,,,,,,,,,*1E
$GNGSA,A,1,,,,,,,,,,,,,,,*00
$BDGSA,A,1,,,,,,,,,,,,,,,*0F
$GPGGA,,,,,,0,,,,,,,,*66
$GPRMC,,V,,,,,,,,,,N*53
$GPGSV,4,1,16,01,38,036,40,03,30,106,40,06,27,219,29,07,36,181,35*7D
$GPGSV,4,2,16,11,23,039,34,17,39,307,31,22,17,068,36,28,49,350,36*77
$GPGSV,4,3,16,30,57,217,38,40,,,31,41,,,32,50,,,30*43
$GPGSV,4,4,16,08,,,,09,,,,13,,,,19,20,278,*4A
$GLGSV,2,1,08,70,08,078,29,86,46,324,28,75,72,180,32,,21,260,26*6A
$GLGSV,2,2,08,85,21,023,35,71,08,126,29,74,18,157,,72,,,*58
$BDGSV,4,1,13,203,65,165,29,201,43,116,,202,51,233,,204,24,102,*63
$BDGSV,4,2,13,205,31,251,,206,16,154,,207,52,163,,208,50,002,*67
$BDGSV,4,3,13,209,06,182,,210,73,206,,211,37,289,,212,45,009,*64
$BDGSV,4,4,13,214,,,*5D
$GPVTG,,T,,M,,N,,K,N*2C
$GPGSA,A,1,,,,,,,,,,,,,,,*1E
$GNGSA,A,1,,,,,,,,,,,,,,,*00
$BDGSA,A,1,,,,,,,,,,,,,,,*0F
$GPGGA,,,,,,0,,,,,,,,*66
$GPRMC,,V,,,,,,,,,,N*53
$GPGSV,4,1,16,01,38,036,40,03,30,106,41,06,27,219,29,07,36,181,36*7F
$GPGSV,4,2,16,11,23,039,34,17,39,307,31,22,17,068,38,28,49,350,36*79
$GPGSV,4,3,16,30,57,217,38,40,,,31,41,,,33,50,,,30*42
$GPGSV,4,4,16,08,,,,09,,,,13,,,,19,20,278,*4A
$GLGSV,2,1,08,70,08,078,28,86,46,324,34,75,72,180,33,,21,260,26*67
$GLGSV,2,2,08,85,21,023,36,71,08,126,34,74,18,157,,72,,,*57
$BDGSV,4,1,13,203,65,165,29,201,43,116,,202,51,233,,204,24,102,*63
$BDGSV,4,2,13,205,31,251,,206,16,154,,207,52,163,,208,50,002,*67
$BDGSV,4,3,13,209,06,182,,210,73,206,,211,37,289,,212,45,009,*64
$BDGSV,4,4,13,214,,,*5D
$GPVTG,,T,,M,,N,,K,N*2C
$GPGSA,A,1,,,,,,,,,,,,,,,*1E
$GNGSA,A,1,,,,,,,,,,,,,,,*00
$BDGSA,A,1,,,,,,,,,,,,,,,*0F
$GPGGA,,,,,,0,,,,,,,,*66
$GPRMC,,V,,,,,,,,,,N*53
$GPGSV,4,1,16,01,38,036,40,03,30,106,41,06,27,219,30,07,36,181,37*76
$GPGSV,4,2,16,11,23,039,36,17,39,307,33,19,20,278,28,22,17,068,37*7F
$GPGSV,4,3,16,28,49,350,35,30,57,217,39,,,,29,40,,,30*7D
$GPGSV,4,4,16,41,,,33,50,,,30,08,,,,09,,,*7C
$GLGSV,2,1,08,70,08,078,29,86,46,324,34,75,72,180,34,,21,260,26*61
$GLGSV,2,2,08,85,21,023,36,71,08,126,33,74,18,157,,72,,,*50
$BDGSV,4,1,13,203,65,165,28,201,43,116,,202,51,233,,204,24,102,*62
$BDGSV,4,2,13,205,31,251,,206,16,154,,207,52,163,,208,50,002,*67
$BDGSV,4,3,13,209,06,182,,210,73,206,,211,37,289,,212,45,009,*64
$BDGSV,4,4,13,214,,,*5D
$GPVTG,,T,,M,,N,,K,N*2C
$GPGSA,A,1,,,,,,,,,,,,,,,*1E
$GNGSA,A,1,,,,,,,,,,,,,,,*00
$BDGSA,A,1,,,,,,,,,,,,,,,*0F
$GPGGA,,,,,,0,,,,,,,,*66
$GPRMC,,V,,,,,,,,,,N*53
$GPGSV,4,1,16,01,38,036,42,03,30,106,42,06,27,219,29,07,36,181,36*7E
$GPGSV,4,2,16,11,23,039,35,17,39,307,33,19,20,278,28,22,17,068,39*72
$GPGSV,4,3,16,28,49,350,36,30,57,217,39,,,,30,40,,,30*76
$GPGSV,4,4,16,41,,,32,50,,,30,09,,,,13,,,*77
$GLGSV,2,1,08,70,08,078,30,86,46,324,34,75,72,180,34,,21,260,26*69
$GLGSV,2,2,08,85,21,023,36,71,08,126,33,74,18,157,,72,,,*50
$BDGSV,4,1,13,203,65,165,28,201,43,116,,202,51,233,,204,24,102,*62
$BDGSV,4,2,13,205,31,251,,206,16,154,,207,52,163,,208,50,002,*67
$BDGSV,4,3,13,209,06,182,,210,73,206,,211,37,289,,212,45,009,*64
$BDGSV,4,4,13,214,,,*5D
$GPVTG,,T,,M,,N,,K,N*2C
$GPGSA,A,1,,,,,,,,,,,,,,,*1E
$GNGSA,A,1,,,,,,,,,,,,,,,*00
$BDGSA,A,1,,,,,,,,,,,,,,,*0F
$GPGGA,,,,,,0,,,,,,,,*66
$GPRMC,,V,,,,,,,,,,N*53
$GPGSV,4,1,16,01,38,036,41,03,30,106,42,06,27,219,31,07,36,181,36*74
$GPGSV,4,2,16,11,23,039,36,17,39,307,34,19,20,278,31,22,17,068,37*70
$GPGSV,4,3,16,28,49,350,35,30,57,217,40,,,,29,40,,,31*72
$GPGSV,4,4,16,41,,,33,50,,,30,09,,,,13,,,*76
$GLGSV,2,1,08,70,08,078,31,86,46,324,35,75,72,180,34,,21,260,26*69
$GLGSV,2,2,08,85,21,023,39,71,08,126,34,74,18,157,,72,,,*58
$BDGSV,4,1,13,203,65,165,28,201,43,116,,202,51,233,,204,24,102,*62
$BDGSV,4,2,13,205,31,251,,206,16,154,,207,52,163,,208,50,002,*67
$BDGSV,4,3,13,209,06,182,,210,73,206,,211,37,289,,212,45,009,*64
$BDGSV,4,4,13,214,,,*5D
$GPVTG,,T,,M,,N,,K,N*2C
$GPGSA,A,1,,,,,,,,,,,,,,,*1E
$GNGSA,A,1,,,,,,,,,,,,,,,*00
$BDGSA,A,1,,,,,,,,,,,,,,,*0F
$GPGGA,,,,,,0,,,,,,,,*66
$GPRMC,,V,,,,,,,,,,N*53
$GPGSV,4,1,16,01,38,036,41,03,30,106,42,06,27,219,30,07,36,181,37*74
$GPGSV,4,2,16,11,23,039,36,17,39,307,33,19,20,278,32,22,17,068,38*7B
$GPGSV,4,3,16,28,49,350,35,30,57,217,38,,,,29,40,,,31*7D
$GPGSV,4,4,16,41,,,32,50,,,30,09,,,,13,,,*77
$GLGSV,2,1,08,70,08,078,30,86,46,324,34,75,72,180,34,,21,260,26*69
$GLGSV,2,2,08,85,21,023,37,71,08,126,35,74,18,157,,72,,,*57
$BDGSV,4,1,14,203,65,165,27,205,31,251,29,215,,,30,201,43,116,*52
$BDGSV,4,2,14,202,51,233,,204,24,102,,206,16,154,,207,52,163,*6B
$BDGSV,4,3,14,208,50,002,,209,06,182,,210,73,206,,211,37,289,*67
$BDGSV,4,4,14,212,45,009,,214,,,*53
$GPVTG,,T,,M,,N,,K,N*2C
$GPGSA,A,1,,,,,,,,,,,,,,,*1E
$GNGSA,A,1,,,,,,,,,,,,,,,*00
$BDGSA,A,1,,,,,,,,,,,,,,,*0F
$GPGGA,,,,,,0,,,,,,,,*66
$GPRMC,,V,,,,,,,,,,N*53
$GPGSV,4,1,16,01,38,036,41,03,30,106,42,06,27,219,29,07,36,181,37*7C
$GPGSV,4,2,16,11,23,039,35,17,39,307,37,19,20,278,29,22,17,068,38*76
$GPGSV,4,3,16,28,49,350,33,30,57,217,37,,,,28,40,,,35*71
$GPGSV,4,4,16,41,,,30,50,,,30,09,,,,13,,,*75
$GLGSV,2,1,08,70,08,078,30,86,46,324,34,75,72,180,34,,21,260,26*69
$GLGSV,2,2,08,85,21,023,36,71,08,126,37,74,18,157,,72,,,*54
$BDGSV,4,1,14,203,65,165,29,205,31,251,29,215,,,30,201,43,116,*5C
$BDGSV,4,2,14,202,51,233,,204,24,102,,206,16,154,,207,52,163,*6B
$BDGSV,4,3,14,208,50,002,,209,06,182,,210,73,206,,211,37,289,*67
$BDGSV,4,4,14,212,45,009,,214,,,*53
$GPVTG,,T,,M,,N,,K,N*2C
$GPGSA,A,1,,,,,,,,,,,,,,,*1E
$GNGSA,A,1,,,,,,,,,,,,,,,*00
$BDGSA,A,1,,,,,,,,,,,,,,,*0F
$GPGGA,,,,,,0,,,,,,,,*66
$GPRMC,,V,,,,,,,,,,N*53
$GPGSV,4,1,16,01,38,036,40,03,30,106,43,06,27,219,29,07,36,181,36*7D
$GPGSV,4,2,16,11,23,039,37,17,39,307,39,19,20,278,26,22,17,068,39*74
$GPGSV,4,3,16,28,49,350,34,30,57,217,37,,,,30,40,,,37*7D
$GPGSV,4,4,16,41,,,31,50,,,30,09,,,,13,,,*74
$GLGSV,2,1,08,70,08,078,31,86,46,324,35,75,72,180,33,,21,260,26*6E
$GLGSV,2,2,08,85,21,023,33,71,08,126,33,74,18,157,,72,,,*55
$BDGSV,4,1,14,203,65,165,32,205,31,251,29,215,,,30,201,43,116,*56
$BDGSV,4,2,14,202,51,233,,204,24,102,,206,16,154,,207,52,163,*6B
$BDGSV,4,3,14,208,50,002,,209,06,182,,210,73,206,,211,37,289,*67
$BDGSV,4,4,14,212,45,009,,214,,,*53
$GPVTG,,T,,M,,N,,K,N*2C
$GPGSA,A,1,,,,,,,,,,,,,,,*1E
$GNGSA,A,1,,,,,,,,,,,,,,,*00
$BDGSA,A,1,,,,,,,,,,,,,,,*0F
$GPGGA,,,,,,0,,,,,,,,*66
$GPRMC,,V,,,,,,,,,,N*53
$GPGSV,4,1,16,01,38,036,40,03,30,106,41,06,27,219,22,07,36,181,36*74
$GPGSV,4,2,16,11,23,039,36,17,39,307,35,19,20,278,29,22,17,068,37*78
$GPGSV,4,3,16,28,49,350,36,30,57,217,39,,,,33,40,,,35*70
$GPGSV,4,4,16,41,,,37,50,,,30,09,,,,13,,,*72
$GLGSV,2,1,08,70,08,078,29,86,46,324,34,75,72,180,35,,21,260,26*60
$GLGSV,2,2,08,85,21,023,33,71,08,126,37,74,18,157,,72,,,*51
$BDGSV,4,1,14,203,65,165,32,205,31,251,28,215,,,30,201,43,116,*57
$BDGSV,4,2,14,202,51,233,,204,24,102,,206,16,154,,207,52,163,*6B
$BDGSV,4,3,14,208,50,002,,209,06,182,,210,73,206,,211,37,289,*67
$BDGSV,4,4,14,212,45,009,,214,,,*53
$GPVTG,,T,,M,,N,,K,N*2C
$GPGSA,A,1,,,,,,,,,,,,,,,*1E
$GNGSA,A,1,,,,,,,,,,,,,,,*00
$BDGSA,A,1,,,,,,,,,,,,,,,*0F
$GPGGA,,,,,,0,,,,,,,,*66
$GPRMC,,V,,,,,,,,,,N*53
$GPGSV,4,1,16,01,38,036,44,03,30,106,42,07,36,181,39,11,23,039,40*7A
$GPGSV,4,2,16,17,39,307,32,19,20,278,32,22,17,068,36,28,49,350,38*70
$GPGSV,4,3,16,30,57,217,39,,,,36,40,,,33,41,,,35*44
$GPGSV,4,4,16,50,,,30,06,27,219,,09,,,,13,,,*4A
$GLGSV,2,1,08,70,08,078,29,86,46,324,37,75,72,180,36,87,21,260,24*6D
$GLGSV,2,2,08,85,21,023,40,71,08,126,39,74,18,157,,72,,,*5B
$BDGSV,4,1,14,203,65,165,32,205,31,251,29,215,,,32,201,43,116,*54
$BDGSV,4,2,14,202,51,233,,204,24,102,,206,16,154,,207,52,163,*6B
$BDGSV,4,3,14,208,50,002,,209,06,182,,210,73,206,,211,37,289,*67
$BDGSV,4,4,14,212,45,009,,214,,,*53
$GPVTG,,T,,M,,N,,K,N*2C
$GPGSA,A,1,,,,,,,,,,,,,,,*1E
$GNGSA,A,1,,,,,,,,,,,,,,,*00
$BDGSA,A,1,,,,,,,,,,,,,,,*0F
$GPGGA,,,,,,0,,,,,,,,*66
$GPRMC,,V,,,,,,,,,,N*53
$GPGSV,4,1,16,01,38,036,43,03,30,106,40,07,36,181,40,11,23,039,40*71
$GPGSV,4,2,16,17,39,307,32,19,20,278,30,22,17,068,35,28,49,350,39*70
$GPGSV,4,3,16,30,57,217,39,,,,37,40,,,33,41,,,36*46
$GPGSV,4,4,16,50,,,30,06,27,219,,08,,,,09,,,*40
$GLGSV,2,1,08,70,08,078,22,86,46,324,38,75,72,180,35,87,21,260,24*6A
$GLGSV,2,2,08,85,21,023,37,71,08,126,36,74,18,157,,72,,,*54
$BDGSV,4,1,14,203,65,165,32,205,31,251,28,215,,,31,201,43,116,*56
$BDGSV,4,2,14,202,51,233,,204,24,102,,206,16,154,,207,52,163,*6B
$BDGSV,4,3,14,208,50,002,,209,06,182,,210,73,206,,211,37,289,*67
$BDGSV,4,4,14,212,45,009,,214,,,*53
$GPVTG,,T,,M,,N,,K,N*2C
$GPGSA,A,1,,,,,,,,,,,,,,,*1E
$GNGSA,A,1,,,,,,,,,,,,,,,*00
$BDGSA,A,1,,,,,,,,,,,,,,,*0F
$GPGGA,,,,,,0,,,,,,,,*66
$GPRMC,,V,,,,,,,,,,N*53
$GPGSV,4,1,16,01,38,036,44,03,30,106,40,07,36,181,42,11,23,039,41*75
$GPGSV,4,2,16,17,39,307,32,19,20,278,27,22,17,068,35,28,49,350,39*76
$GPGSV,4,3,16,30,57,217,40,,,,37,40,,,29,41,,,39*4C
$GPGSV,4,4,16,50,,,30,06,27,219,,08,,,,13,,,*4B
$GLGSV,2,1,08,70,08,078,21,86,46,324,39,75,72,180,35,87,21,260,24*68
$GLGSV,2,2,08,85,21,023,37,71,08,126,37,74,18,157,,72,,,*55
$BDGSV,4,1,14,201,43,116,27,203,65,165,31,205,31,251,28,211,37,289,31*63
$BDGSV,4,2,14,215,,,31,202,51,233,,204,24,102,,206,16,154,*59
$BDGSV,4,3,14,207,52,163,,208,50,002,,209,06,182,,210,73,206,*64
$BDGSV,4,4,14,212,45,009,,214,,,*53
$GPVTG,,T,,M,,N,,K,N*2C
$GPGSA,A,1,,,,,,,,,,,,,,,*1E
$GNGSA,A,1,,,,,,,,,,,,,,,*00
$BDGSA,A,1,,,,,,,,,,,,,,,*0F
$GPGGA,,,,,,0,,,,,,,,*66
$GPRMC,,V,,,,,,,,,,N*53
$GPGSV,4,1,16,01,38,036,44,03,30,106,41,07,36,181,42,11,23,039,42*77
$GPGSV,4,2,16,17,39,307,32,19,20,278,28,22,17,068,36,28,49,350,39*7A
$GPGSV,4,3,16,30,57,217,39,,,,37,40,,,29,41,,,38*43
$GPGSV,4,4,16,50,,,30,06,27,219,,08,,,,13,,,*4B
$GLGSV,2,1,08,70,08,078,20,86,46,324,38,75,72,180,35,87,21,260,21*6D
$GLGSV,2,2,08,85,21,023,36,71,08,126,39,74,18,157,,72,,,*5A
$BDGSV,4,1,14,201,43,116,27,203,65,165,32,205,31,251,28,211,37,289,28*68
$BDGSV,4,2,14,215,,,31,202,51,233,,204,24,102,,206,16,154,*59
$BDGSV,4,3,14,207,52,163,,208,50,002,,209,06,182,,210,73,206,*64
$BDGSV,4,4,14,212,45,009,,214,,,*53
$GPVTG,,T,,M,,N,,K,N*2C
$GPGSA,A,1,,,,,,,,,,,,,,,*1E
$GNGSA,A,1,,,,,,,,,,,,,,,*00
$BDGSA,A,1,,,,,,,,,,,,,,,*0F
$GPGGA,,,,,,0,,,,,,,,*66
$GPRMC,,V,,,,,,,,,,N*53
$GPGSV,4,1,16,01,38,036,44,03,30,106,40,07,36,181,42,11,23,039,41*75
$GPGSV,4,2,16,17,39,307,34,19,20,278,29,22,17,068,35,28,49,350,40*70
$GPGSV,4,3,16,30,57,217,39,,,,38,40,,,29,41,,,38*4C
$GPGSV,4,4,16,50,,,30,06,27,219,,08,,,,13,,,*4B
$GLGSV,2,1,08,70,08,078,26,86,46,324,39,75,72,180,36,87,21,260,21*69
$GLGSV,2,2,08,85,21,023,37,71,08,126,38,74,18,157,,72,,,*5A
$BDGSV,4,1,14,201,43,116,27,203,65,165,33,205,31,251,28,211,37,289,30*60
$BDGSV,4,2,14,215,,,32,202,51,233,,204,24,102,,206,16,154,*5A
$BDGSV,4,3,14,207,52,163,,208,50,002,,209,06,182,,210,73,206,*64
$BDGSV,4,4,14,212,45,009,,214,,,*53
$GPVTG,,T,,M,,N,,K,N*2C
$GPGSA,A,1,,,,,,,,,,,,,,,*1E
$GNGSA,A,1,,,,,,,,,,,,,,,*00
$BDGSA,A,1,,,,,,,,,,,,,,,*0F
$GPGGA,,,,,,0,,,,,,,,*66
$GPRMC,,V,,,,,,,,,,N*53
$GPGSV,4,1,16,01,38,036,45,03,30,106,40,07,36,181,42,11,23,039,42*77
$GPGSV,4,2,16,17,39,307,34,19,20,278,29,22,17,068,36,28,49,350,40*73
$GPGSV,4,3,16,30,57,217,39,,,,37,40,,,29,41,,,38*43
$GPGSV,4,4,16,50,,,30,06,27,219,,08,,,,09,,,*40
$GLGSV,2,1,08,70,08,078,26,86,46,324,39,75,72,180,36,87,21,260,21*69
$GLGSV,2,2,08,85,21,023,37,71,08,126,38,74,18,157,,72,,,*5A
$BDGSV,4,1,14,201,43,116,27,203,65,165,33,205,31,251,26,211,37,289,30*6E
$BDGSV,4,2,14,215,,,32,202,51,233,,204,24,102,,206,16,154,*5A
$BDGSV,4,3,14,207,52,163,,208,50,002,,209,06,182,,210,73,206,*64
$BDGSV,4,4,14,212,45,009,,214,,,*53
$GPVTG,,T,,M,,N,,K,N*2C
$GPGSA,A,1,,,,,,,,,,,,,,,*1E
$GNGSA,A,1,,,,,,,,,,,,,,,*00
$BDGSA,A,1,,,,,,,,,,,,,,,*0F
$GPGGA,,,,,,0,,,,,,,,*66
$GPRMC,,V,,,,,,,,,,N*53
$GPGSV,4,1,15,01,38,036,44,03,30,106,40,07,36,181,42,11,23,039,42*75
$GPGSV,4,2,15,17,39,307,33,19,20,278,29,22,17,068,36,28,49,350,39*79
$GPGSV,4,3,15,30,57,217,39,,,,37,41,,,39,50,,,30*48
$GPGSV,4,4,15,06,27,219,,08,,,,09,,,*45
$GLGSV,2,1,08,70,08,078,27,86,46,324,38,75,72,180,36,87,21,260,19*62
$GLGSV,2,2,08,85,21,023,37,71,08,126,38,74,18,157,,72,,,*5A
$BDGSV,4,1,14,201,43,116,25,203,65,165,33,205,31,251,26,211,37,289,30*6C
$BDGSV,4,2,14,215,,,32,202,51,233,,204,24,102,,206,16,154,*5A
$BDGSV,4,3,14,207,52,163,,208,50,002,,209,06,182,,210,73,206,*64
$BDGSV,4,4,14,212,45,009,,214,,,*53
$GPVTG,,T,,M,,N,,K,N*2C
$GPGSA,A,1,,,,,,,,,,,,,,,*1E
$GNGSA,A,1,,,,,,,,,,,,,,,*00
$BDGSA,A,1,,,,,,,,,,,,,,,*0F
$GPGGA,,,,,,0,,,,,,,,*66
$GPRMC,,V,,,,,,,,,,N*53
$GPGSV,4,1,15,01,38,036,44,03,30,106,40,07,36,181,42,11,23,039,42*75
$GPGSV,4,2,15,17,39,307,34,19,20,278,29,22,17,068,37,28,49,350,39*7F
$GPGSV,4,3,15,30,57,217,39,,,,37,41,,,39,50,,,30*48
$GPGSV,4,4,15,06,27,219,,08,,,,09,,,*45
$GLGSV,2,1,08,70,08,078,27,86,46,324,38,75,72,180,36,87,21,260,23*6B
$GLGSV,2,2,08,85,21,023,38,71,08,126,38,74,18,157,,72,,,*55
$BDGSV,4,1,14,201,43,116,25,203,65,165,33,205,31,251,29,211,37,289,30*63
$BDGSV,4,2,14,215,,,32,202,51,233,,204,24,102,,206,16,154,*5A
$BDGSV,4,3,14,207,52,163,,208,50,002,,209,06,182,,210,73,206,*64
$BDGSV,4,4,14,212,45,009,,214,,,*53
$GPVTG,,T,,M,,N,,K,N*2C
$GPGSA,A,1,,,,,,,,,,,,,,,*1E
$GNGSA,A,1,,,,,,,,,,,,,,,*00
$BDGSA,A,1,,,,,,,,,,,,,,,*0F
$GPGGA,,,,,,0,,,,,,,,*66
$GPRMC,,V,,,,,,,,,,N*53
$GPGSV,4,1,15,01,38,036,43,03,30,106,39,07,36,181,41,11,23,039,41*7C
$GPGSV,4,2,15,17,39,307,36,19,20,278,28,22,17,068,38,28,49,350,41*7C
$GPGSV,4,3,15,30,57,217,40,,,,37,41,,,36,50,,,30*49
$GPGSV,4,4,15,06,27,219,,08,,,,09,,,*45
$GLGSV,2,1,08,70,08,078,27,86,46,324,38,75,72,180,35,87,21,260,23*68
$GLGSV,2,2,08,85,21,023,38,71,08,126,38,74,18,157,,72,,,*55
$BDGSV,4,1,14,201,43,116,24,203,65,165,33,205,31,251,28,211,37,289,30*63
$BDGSV,4,2,14,215,,,33,202,51,233,,204,24,102,,206,16,154,*5B
$BDGSV,4,3,14,207,52,163,,208,50,002,,209,06,182,,210,73,206,*64
$BDGSV,4,4,14,212,45,009,,214,,,*53
$GPVTG,,T,,M,,N,,K,N*2C
$GPGSA,A,1,,,,,,,,,,,,,,,*1E
$GNGSA,A,1,,,,,,,,,,,,,,,*00
$BDGSA,A,1,,,,,,,,,,,,,,,*0F
$GPGGA,,,,,,0,,,,,,,,*66
$GPRMC,,V,,,,,,,,,,N*53
$GPGSV,4,1,16,01,38,036,39,03,30,106,36,07,36,181,39,11,23,039,32*76
$GPGSV,4,2,16,17,39,307,38,19,20,278,23,22,17,068,39,28,49,350,42*78
$GPGSV,4,3,16,30,57,217,41,,,,37,41,,,38,50,,,30*45
$GPGSV,4,4,16,06,27,219,,08,,,,09,,,,13,,,*44
$GLGSV,2,1,08,70,08,078,33,86,46,324,40,75,72,180,33,87,21,260,27*60
$GLGSV,2,2,08,85,21,023,42,71,08,126,37,74,18,157,,72,,,*57
$BDGSV,4,1,14,201,43,116,24,203,65,165,32,205,31,251,29,211,37,289,31*62
$BDGSV,4,2,14,215,,,32,202,51,233,,204,24,102,,206,16,154,*5A
$BDGSV,4,3,14,207,52,163,,208,50,002,,209,06,182,,210,73,206,*64
$BDGSV,4,4,14,212,45,009,,214,,,*53
$GPVTG,,T,,M,,N,,K,N*2C
$GPGSA,A,1,,,,,,,,,,,,,,,*1E
$GNGSA,A,1,,,,,,,,,,,,,,,*00
$BDGSA,A,1,,,,,,,,,,,,,,,*0F
$GPGGA,,,,,,0,,,,,,,,*66
$GPRMC,,V,,,,,,,,,,N*53
$GPGSV,4,1,15,01,38,036,39,03,30,106,36,07,36,181,40,11,23,039,33*7A
$GPGSV,4,2,15,17,39,307,38,19,20,278,24,22,17,068,40,28,49,350,43*73
$GPGSV,4,3,15,30,57,217,41,,,,38,41,,,38,50,,,30*49
$GPGSV,4,4,15,06,27,219,,09,,,,13,,,*4F
$GLGSV,2,1,08,70,08,078,34,86,46,324,40,75,72,180,33,87,21,260,29*69
$GLGSV,2,2,08,85,21,023,42,71,08,126,38,74,18,157,,72,,,*58
$BDGSV,4,1,14,201,43,116,24,203,65,165,32,204,24,102,30,205,31,251,28*64
$BDGSV,4,2,14,211,37,289,31,215,,,32,202,51,233,,206,16,154,*5E
$BDGSV,4,3,14,207,52,163,,208,50,002,,209,06,182,,210,73,206,*64
$BDGSV,4,4,14,212,45,009,,214,,,*53
$GPVTG,,T,,M,,N,,K,N*2C
$GPGSA,A,1,,,,,,,,,,,,,,,*1E
$GNGSA,A,1,,,,,,,,,,,,,,,*00
$BDGSA,A,1,,,,,,,,,,,,,,,*0F
$GPGGA,,,,,,0,,,,,,,,*66
$GPRMC,,V,,,,,,,,,,N*53
$GPGSV,4,1,16,01,38,036,39,03,30,106,36,07,36,181,40,11,23,039,35*7F
$GPGSV,4,2,16,17,39,307,38,19,20,278,28,22,17,068,39,28,49,350,43*72
$GPGSV,4,3,16,30,57,217,41,,,,37,41,,,37,42,,,33*4A
$GPGSV,4,4,16,50,,,30,06,27,219,,09,,,,13,,,*4A
$GLGSV,2,1,08,70,08,078,32,86,46,324,38,75,72,180,33,87,21,260,28*61
$GLGSV,2,2,08,85,21,023,41,71,08,126,36,74,18,157,,72,,,*55
$BDGSV,4,1,14,201,43,116,24,203,65,165,32,204,24,102,31,205,31,251,28*65
$BDGSV,4,2,14,211,37,289,30,215,,,32,202,51,233,,206,16,154,*5F
$BDGSV,4,3,14,207,52,163,,208,50,002,,209,06,182,,210,73,206,*64
$BDGSV,4,4,14,212,45,009,,214,,,*53
$GPVTG,,T,,M,,N,,K,N*2C
$GPGSA,A,1,,,,,,,,,,,,,,,*1E
$GNGSA,A,1,,,,,,,,,,,,,,,*00
$BDGSA,A,1,,,,,,,,,,,,,,,*0F
$GPGGA,,,,,,0,,,,,,,,*66
$GPRMC,,V,,,,,,,,,,N*53
$GPGSV,4,1,16,01,38,036,40,03,30,106,42,07,36,181,42,11,23,039,40*72
$GPGSV,4,2,16,17,39,307,35,19,20,278,30,22,17,068,38,28,49,350,39*7A
$GPGSV,4,3,16,30,57,217,40,,,,37,41,,,35,42,,,30*4A
$GPGSV,4,4,16,50,,,30,06,27,219,,09,,,,13,,,*4A
$GLGSV,2,1,08,70,08,078,30,86,46,324,36,75,72,180,37,87,21,260,29*68
$GLGSV,2,2,08,85,21,023,37,71,08,126,38,74,18,157,,72,,,*5A
$BDGSV,4,1,14,201,43,116,24,203,65,165,33,204,24,102,35,205,31,251,27*6F
$BDGSV,4,2,14,211,37,289,32,215,,,33,202,51,233,,206,16,154,*5C
$BDGSV,4,3,14,207,52,163,,208,50,002,,209,06,182,,210,73,206,*64
$BDGSV,4,4,14,212,45,009,,214,,,*53
$GPVTG,,T,,M,,N,,K,N*2C
$GPGSA,A,1,,,,,,,,,,,,,,,*1E
$GNGSA,A,1,,,,,,,,,,,,,,,*00
$BDGSA,A,1,,,,,,,,,,,,,,,*0F
$GPGGA,,,,,,0,,,,,,,,*66
$GPRMC,,V,,,,,,,,,,N*53
$GPGSV,4,1,16,01,38,036,40,03,30,106,40,07,36,181,34,11,23,039,42*73
$GPGSV,4,2,16,17,39,307,30,19,20,278,29,22,17,068,36,28,49,350,31*71
$GPGSV,4,3,16,30,57,217,32,,,,31,41,,,30,42,,,30*4C
$GPGSV,4,4,16,50,,,30,06,27,219,,09,,,,13,,,*4A
$GLGSV,2,1,08,70,08,078,32,86,46,324,35,75,72,180,32,87,21,260,23*66
$GLGSV,2,2,08,85,21,023,38,71,08,126,36,74,18,157,,72,,,*5B
$BDGSV,4,1,14,201,43,116,24,203,65,165,29,204,24,102,32,205,31,251,27*63
$BDGSV,4,2,14,208,50,002,30,211,37,289,27,215,,,27,202,51,233,*50
$BDGSV,4,3,14,206,16,154,,207,52,163,,209,06,182,,210,73,206,*6A
$BDGSV,4,4,14,212,45,009,,214,,,*53
$GPVTG,,T,,M,,N,,K,N*2C
$GPGSA,A,1,,,,,,,,,,,,,,,*1E
$GNGSA,A,1,,,,,,,,,,,,,,,*00
$BDGSA,A,1,,,,,,,,,,,,,,,*0F
$GPGGA,,,,,,0,,,,,,,,*66
$GPRMC,,V,,,,,,,,,,N*53
$GPGSV,4,1,16,01,38,036,40,03,30,106,40,07,36,181,34,11,23,039,42*73
$GPGSV,4,2,16,17,39,307,30,19,20,278,29,22,17,068,36,28,49,350,31*71
$GPGSV,4,3,16,30,57,217,32,,,,31,41,,,30,42,,,30*4C
$GPGSV,4,4,16,50,,,30,06,27,219,,09,,,,13,,,*4A
$GLGSV,2,1,08,70,08,078,32,86,46,324,35,75,72,180,32,87,21,260,23*66
$GLGSV,2,2,08,85,21,023,38,71,08,126,36,74,18,157,,72,,,*5B
$BDGSV,4,1,14,201,43,116,24,203,65,165,29,204,24,102,32,205,31,251,27*63
$BDGSV,4,2,14,208,50,002,30,211,37,289,27,215,,,27,202,51,233,*50
$BDGSV,4,3,14,206,16,154,,207,52,163,,209,06,182,,210,73,206,*6A
$BDGSV,4,4,14,212,45,009,,214,,,*53
$GPVTG,,T,,M,,N,,K,N*2C
$GPGSA,A,1,,,,,,,,,,,,,,,*1E
$GNGSA,A,1,,,,,,,,,,,,,,,*00
$BDGSA,A,1,,,,,,,,,,,,,,,*0F
$GPGGA,,,,,,0,,,,,,,,*66
$GPRMC,,V,,,,,,,,,,N*53
$GPGSV,4,1,16,01,38,036,39,03,30,106,39,07,36,181,32,11,23,039,41*76
$GPGSV,4,2,16,17,39,307,30,19,20,278,26,22,17,068,35,28,49,350,35*79
$GPGSV,4,3,16,30,57,217,32,,,,30,40,,,33,41,,,31*4D
$GPGSV,4,4,16,42,,,30,50,,,30,06,27,219,,08,,,*4C
$GLGSV,2,1,07,70,08,078,31,86,46,324,33,75,72,180,29,87,21,260,24*61
$GLGSV,2,2,07,85,21,023,35,71,08,126,32,74,18,158,*57
$BDGSV,4,1,13,201,43,116,24,203,65,165,29,204,24,102,30,205,31,251,27*66
$BDGSV,4,2,13,208,50,002,30,211,38,289,26,215,,,27,202,51,233,*59
$BDGSV,4,3,13,206,16,154,,207,52,163,,209,06,182,,210,73,206,*6D
$BDGSV,4,4,13,212,45,009,*63
$GPVTG,,T,,M,,N,,K,N*2C
$GPGSA,A,1,,,,,,,,,,,,,,,*1E
$GNGSA,A,1,,,,,,,,,,,,,,,*00
$BDGSA,A,1,,,,,,,,,,,,,,,*0F
$GPGGA,,,,,,0,,,,,,,,*66
$GPRMC,,V,,,,,,,,,,N*53
$GPGSV,4,1,16,01,38,036,39,03,30,106,40,06,27,219,20,07,36,181,30*7F
$GPGSV,4,2,16,11,23,039,42,17,39,307,32,19,20,278,26,22,17,068,37*73
$GPGSV,4,3,16,28,49,350,35,30,57,217,34,,,,28,40,,,31*70
$GPGSV,4,4,16,41,,,32,42,,,31,50,,,30,08,,,*70
$GLGSV,2,1,07,74,18,158,20,70,08,078,31,86,46,324,33,75,72,180,30*63
$GLGSV,2,2,07,87,21,260,25,85,21,023,36,71,08,126,32*5D
$BDGSV,4,1,13,201,43,116,24,203,65,165,30,204,24,102,32,205,31,251,27*6C
$BDGSV,4,2,13,208,50,002,31,211,38,289,28,215,,,29,202,51,233,*58
$BDGSV,4,3,13,206,16,154,,207,52,163,,209,06,182,,210,73,206,*6D
$BDGSV,4,4,13,212,45,009,*63
$GPGGA,125322.0,2102.297079,N,10552.085690,E,1,04,1.5,47.1,M,-21.0,M,,*47
$GPVTG,0.0,T,1.5,M,0.0,N,0.0,K,A*27
$GPGSA,A,2,01,03,07,30,,,,,,,,,1.8,1.5,1.0*39
$GNGSA,A,2,01,03,07,30,,,,,,,,,1.8,1.5,1.0*27
$GNGSA,A,2,71,,,,,,,,,,,,1.8,1.5,1.0*27
$BDGSA,A,2,,,,,,,,,,,,,1.8,1.5,1.0*2E
$GPRMC,125322.0,A,2102.297079,N,10552.085690,E,0.0,0.0,070416,1.5,W,A*10
$GPGSV,4,1,16,01,38,036,38,03,30,106,38,06,27,219,21,07,36,181,30*70
$GPGSV,4,2,16,11,23,039,40,17,39,307,31,19,20,278,26,22,17,068,35*70
$GPGSV,4,3,16,28,49,350,33,30,57,217,33,,,,26,40,,,30*7E
$GPGSV,4,4,16,41,,,32,42,,,29,50,,,30,08,,,*79
$GLGSV,2,1,07,74,18,158,19,70,08,078,29,86,46,324,31,75,72,180,27*64
$GLGSV,2,2,07,87,21,260,23,85,21,023,35,71,08,126,30*5A
$BDGSV,4,1,13,201,43,116,24,203,65,165,30,204,24,102,30,205,31,251,22*6B
$BDGSV,4,2,13,208,50,002,30,211,38,289,27,215,,,27,202,51,233,*58
$BDGSV,4,3,13,206,16,154,,207,52,163,,209,06,182,,210,73,206,*6D
$BDGSV,4,4,13,212,45,009,*63
$GPGGA,125323.0,2102.297175,N,10552.084431,E,1,04,1.5,38.1,M,-21.0,M,,*4B
$GPVTG,0.0,T,1.5,M,0.0,N,0.0,K,A*27
$GPGSA,A,2,01,03,07,30,,,,,,,,,1.8,1.5,1.0*39
$GNGSA,A,2,01,03,07,30,,,,,,,,,1.8,1.5,1.0*27
$GNGSA,A,2,71,,,,,,,,,,,,1.8,1.5,1.0*27
$BDGSA,A,2,,,,,,,,,,,,,1.8,1.5,1.0*2E
$GPRMC,125323.0,A,2102.297175,N,10552.084431,E,0.0,0.0,070416,1.5,W,A*14
$GPGSV,4,1,16,01,38,036,38,03,30,106,37,07,36,181,30,11,23,039,39*74
$GPGSV,4,2,16,17,39,307,32,19,20,278,27,22,17,068,35,28,49,350,31*7E
$GPGSV,4,3,16,30,57,217,32,,,,23,40,,,29,41,,,32*47
$GPGSV,4,4,16,42,,,29,50,,,30,06,27,219,,08,,,*44
$GLGSV,2,1,07,74,18,158,18,70,08,078,28,86,46,324,32,75,72,180,28*68
$GLGSV,2,2,07,87,21,260,22,85,21,023,34,71,08,126,28*53
$BDGSV,4,1,13,201,43,116,24,203,65,165,28,204,24,102,29,205,31,251,22*6A
$BDGSV,4,2,13,208,50,002,28,211,38,289,27,215,,,28,202,51,233,*5E
$BDGSV,4,3,13,206,16,154,,207,52,163,,209,06,182,,210,73,206,*6D
$BDGSV,4,4,13,212,45,009,*63
$GPGGA,125324.0,2102.297888,N,10552.083152,E,1,04,1.5,37.4,M,-21.0,M,,*4A
$GPVTG,0.0,T,1.5,M,0.0,N,0.0,K,A*27
$GPGSA,A,2,01,03,07,30,,,,,,,,,1.8,1.5,1.0*39
$GNGSA,A,2,01,03,07,30,,,,,,,,,1.8,1.5,1.0*27
$GNGSA,A,2,71,,,,,,,,,,,,1.8,1.5,1.0*27
$BDGSA,A,2,,,,,,,,,,,,,1.8,1.5,1.0*2E
$GPRMC,125324.0,A,2102.297888,N,10552.083152,E,0.0,0.0,070416,1.5,W,A*1F
$GPGSV,4,1,16,01,38,036,37,03,30,106,38,07,36,181,28,11,23,039,38*7C
$GPGSV,4,2,16,17,39,307,31,19,20,278,24,22,17,068,35,28,49,350,32*7D
$GPGSV,4,3,16,30,57,217,31,,,,24,40,,,30,41,,,30*49
$GPGSV,4,4,16,42,,,29,50,,,30,06,27,219,,08,,,*44
$GLGSV,2,1,07,74,18,158,18,70,08,078,27,86,46,324,31,75,72,180,25*69
$GLGSV,2,2,07,87,21,260,22,85,21,023,32,71,08,126,29*54
$BDGSV,4,1,13,201,43,116,24,203,65,165,28,204,24,102,30,205,31,251,21*61
$BDGSV,4,2,13,208,50,002,28,211,38,289,26,215,,,27,202,51,233,*50
$BDGSV,4,3,13,206,16,154,,207,52,163,,209,06,182,,210,73,206,*6D
$BDGSV,4,4,13,212,45,009,*63
$GPGGA,125325.0,2102.298244,N,10552.081215,E,1,04,1.5,26.2,M,-21.0,M,,*4A
$GPVTG,0.0,T,1.5,M,0.0,N,0.0,K,A*27
$GPGSA,A,2,01,03,07,30,,,,,,,,,1.8,1.5,1.0*39
$GNGSA,A,2,01,03,07,30,,,,,,,,,1.8,1.5,1.0*27
$GNGSA,A,2,71,,,,,,,,,,,,1.8,1.5,1.0*27
$BDGSA,A,2,,,,,,,,,,,,,1.8,1.5,1.0*2E
$GPRMC,125325.0,A,2102.298244,N,10552.081215,E,0.0,0.0,070416,1.5,W,A*19
$GPGSV,4,1,16,01,38,036,38,03,30,106,38,07,36,181,29,11,23,039,39*73
$GPGSV,4,2,16,17,39,307,32,19,20,278,25,22,17,068,36,28,49,350,33*7D
$GPGSV,4,3,16,30,57,217,32,,,,22,40,,,30,41,,,31*4D
$GPGSV,4,4,16,42,,,29,50,,,30,06,27,219,,08,,,*44
$GLGSV,2,1,07,74,18,158,17,70,08,078,27,86,46,324,31,75,72,180,26*65
$GLGSV,2,2,07,87,21,260,23,85,21,023,33,71,08,126,29*54
$BDGSV,4,1,13,201,43,116,24,203,65,165,27,204,24,102,29,205,31,251,24*63
$BDGSV,4,2,13,208,50,002,29,211,38,289,25,215,,,27,202,51,233,*52
$BDGSV,4,3,13,206,16,154,,207,52,164,,209,06,182,,210,73,206,*6A
$BDGSV,4,4,13,212,45,009,*63
$GPGGA,125326.0,2102.298650,N,10552.080969,E,1,05,1.4,21.3,M,-21.0,M,,*4F
$GPVTG,0.0,T,1.5,M,0.0,N,0.0,K,A*27
$GPGSA,A,2,01,03,07,11,30,,,,,,,,1.7,1.4,1.0*37
$GNGSA,A,2,01,03,07,11,30,,,,,,,,1.7,1.4,1.0*29
$GNGSA,A,2,71,,,,,,,,,,,,1.7,1.4,1.0*29
$BDGSA,A,2,,,,,,,,,,,,,1.7,1.4,1.0*20
$GPRMC,125326.0,A,2102.298650,N,10552.080969,E,0.0,0.0,070416,1.5,W,A*1A
$GPGSV,4,1,16,01,38,036,41,03,30,106,41,06,27,219,19,07,36,181,31*7A
$GPGSV,4,2,16,11,23,039,41,17,39,307,34,19,20,278,28,22,17,068,38*77
$GPGSV,4,3,16,28,49,350,35,30,57,217,34,,,,26,40,,,34*7B
$GPGSV,4,4,16,41,,,33,42,,,31,50,,,30,08,,,*71
$GLGSV,2,1,07,74,18,158,17,70,08,078,32,86,46,324,36,75,72,180,28*68
$GLGSV,2,2,07,87,21,260,27,85,21,023,37,71,08,126,33*5F
$BDGSV,4,1,13,201,43,116,22,203,65,165,30,204,24,102,31,205,31,251,22*6C
$BDGSV,4,2,13,208,50,002,31,211,38,289,25,215,,,28,202,51,233,*54
$BDGSV,4,3,13,206,16,154,,207,52,164,,209,06,182,,210,73,206,*6A
$BDGSV,4,4,13,212,45,009,*63
$GPGGA,125327.0,2102.298394,N,10552.081829,E,1,05,1.4,21.7,M,-21.0,M,,*43
$GPVTG,0.0,T,1.5,M,0.0,N,0.0,K,A*27
$GPGSA,A,2,01,03,07,11,30,,,,,,,,1.7,1.4,1.0*37
$GNGSA,A,2,01,03,07,11,30,,,,,,,,1.7,1.4,1.0*29
$GNGSA,A,2,71,,,,,,,,,,,,1.7,1.4,1.0*29
$BDGSA,A,2,,,,,,,,,,,,,1.7,1.4,1.0*20
$GPRMC,125327.0,A,2102.298394,N,10552.081829,E,0.0,0.0,070416,1.5,W,A*12
$GPGSV,4,1,15,01,38,036,36,03,30,106,36,07,36,181,27,11,23,039,37*70
$GPGSV,4,2,15,17,39,307,30,19,20,278,24,22,17,068,33,28,49,350,31*7A
$GPGSV,4,3,15,30,57,217,30,,,,24,40,,,30,41,,,29*43
$GPGSV,4,4,15,42,,,31,50,,,30,08,,,*77
$GLGSV,2,1,07,74,18,158,24,70,08,078,23,86,46,324,29,75,72,180,20*6E
$GLGSV,2,2,07,87,21,260,20,85,21,023,31,71,08,126,27*5B
$BDGSV,4,1,13,201,43,116,21,203,65,165,27,204,24,102,28,205,31,251,23*60
$BDGSV,4,2,13,208,50,002,29,211,38,289,22,215,,,26,202,51,233,*54
$BDGSV,4,3,13,206,16,154,,207,52,164,,209,06,182,,210,73,206,*6A
$BDGSV,4,4,13,212,45,009,*63
$GPGGA,125328.0,2102.298393,N,10552.082069,E,1,05,1.4,21.3,M,-21.0,M,,*40
$GPVTG,0.0,T,1.5,M,0.0,N,0.0,K,A*27
$GPGSA,A,2,01,03,07,11,30,,,,,,,,1.7,1.4,1.0*37
$GNGSA,A,2,01,03,07,11,30,,,,,,,,1.7,1.4,1.0*29
$GNGSA,A,2,71,,,,,,,,,,,,1.7,1.4,1.0*29
$BDGSA,A,2,,,,,,,,,,,,,1.7,1.4,1.0*20
$GPRMC,125328.0,A,2102.298393,N,10552.082069,E,0.0,0.0,070416,1.5,W,A*15
$GPGSV,4,1,15,01,38,036,40,03,30,106,38,07,36,181,32,11,23,039,40*7B
$GPGSV,4,2,15,17,39,307,33,19,20,278,28,22,17,068,37,28,49,350,34*74
$GPGSV,4,3,15,30,57,217,33,,,,27,40,,,32,41,,,31*48
$GPGSV,4,4,15,42,,,29,50,,,30,08,,,*7E
$GLGSV,2,1,07,74,18,158,18,70,08,078,29,86,46,324,34,75,72,180,27*60
$GLGSV,2,2,07,87,21,260,24,85,21,023,37,71,08,126,32*5D
$BDGSV,4,1,13,201,43,116,21,203,65,165,29,204,24,102,29,205,31,251,23*6F
$BDGSV,4,2,13,208,50,002,30,211,38,289,26,215,,,28,202,51,233,*56
$BDGSV,4,3,13,206,16,154,,207,52,164,,209,06,182,,210,73,206,*6A
$BDGSV,4,4,13,212,45,009,*63
$GPGGA,125329.0,2102.298567,N,10552.082222,E,1,05,1.4,19.2,M,-21.0,M,,*4B
$GPVTG,0.0,T,1.5,M,0.0,N,0.0,K,A*27
$GPGSA,A,2,01,03,07,11,30,,,,,,,,1.7,1.4,1.0*37
$GNGSA,A,2,01,03,07,11,30,,,,,,,,1.7,1.4,1.0*29
$GNGSA,A,2,71,,,,,,,,,,,,1.7,1.4,1.0*29
$BDGSA,A,2,,,,,,,,,,,,,1.7,1.4,1.0*20
$GPRMC,125329.0,A,2102.298567,N,10552.082222,E,0.0,0.0,070416,1.5,W,A*14
$GPGSV,4,1,15,01,38,036,38,03,30,106,37,07,36,181,30,11,23,039,38*76
$GPGSV,4,2,15,17,39,307,30,19,20,278,25,22,17,068,36,28,49,350,31*7E
$GPGSV,4,3,15,30,57,217,29,,,,24,40,,,30,41,,,31*42
$GPGSV,4,4,15,42,,,29,50,,,30,08,,,*7E
$GLGSV,2,1,07,74,18,158,17,70,08,078,25,86,46,324,31,75,72,180,24*65
$GLGSV,2,2,07,87,21,260,23,85,21,023,35,71,08,126,30*5A
$BDGSV,4,1,13,201,43,116,21,203,65,165,26,204,24,102,29,205,31,251,23*60
$BDGSV,4,2,13,208,50,002,27,211,38,289,25,215,,,26,202,51,233,*5D
$BDGSV,4,3,13,206,16,154,,207,52,164,,209,06,182,,210,73,206,*6A
$BDGSV,4,4,13,212,45,009,*63
$GPGGA,125330.0,2102.298588,N,10552.082690,E,1,05,1.4,19.3,M,-21.0,M,,*4E
$GPVTG,0.0,T,1.5,M,0.0,N,0.0,K,A*27
$GPGSA,A,2,01,03,07,11,30,,,,,,,,1.7,1.4,1.0*37
$GNGSA,A,2,01,03,07,11,30,,,,,,,,1.7,1.4,1.0*29
$GNGSA,A,2,71,,,,,,,,,,,,1.7,1.4,1.0*29
$BDGSA,A,2,,,,,,,,,,,,,1.7,1.4,1.0*20
$GPRMC,125330.0,A,2102.298588,N,10552.082690,E,0.0,0.0,070416,1.5,W,A*10
$GPGSV,4,1,15,01,38,036,42,03,30,106,41,07,36,181,33,11,23,039,42*74
$GPGSV,4,2,15,17,39,307,33,19,20,278,29,22,17,068,40,28,49,350,34*75
$GPGSV,4,3,15,30,57,217,31,,,,29,40,,,33,41,,,31*45
$GPGSV,4,4,15,42,,,31,50,,,30,08,,,*77
$GLGSV,2,1,07,74,18,158,23,70,08,078,31,86,46,324,36,75,72,180,29*6D
$GLGSV,2,2,07,87,21,260,26,85,21,023,39,71,08,126,35*56
$BDGSV,4,1,13,201,43,116,23,203,65,165,27,204,24,102,31,205,31,251,23*6A
$BDGSV,4,2,13,208,50,002,29,211,38,289,28,215,,,28,202,51,233,*50
$BDGSV,4,3,13,206,16,154,,207,52,164,,209,06,182,,210,73,206,*6A
$BDGSV,4,4,13,212,45,009,*63
$GPGGA,125331.0,2102.298515,N,10552.083309,E,1,05,1.4,19.5,M,-21.0,M,,*49
$GPVTG,0.0,T,1.5,M,0.0,N,0.0,K,A*27
$GPGSA,A,2,01,03,07,11,30,,,,,,,,1.7,1.4,1.0*37
$GNGSA,A,2,01,03,07,11,30,,,,,,,,1.7,1.4,1.0*29
$GNGSA,A,2,71,,,,,,,,,,,,1.7,1.4,1.0*29
$BDGSA,A,2,,,,,,,,,,,,,1.7,1.4,1.0*20
$GPRMC,125331.0,A,2102.298515,N,10552.083309,E,0.0,0.0,070416,1.5,W,A*11
$GPGSV,4,1,15,01,38,036,42,03,30,106,40,07,36,181,32,11,23,039,41*77
$GPGSV,4,2,15,17,39,307,33,19,20,278,29,22,17,068,39,28,49,350,34*7B
$GPGSV,4,3,15,30,57,217,33,,,,29,40,,,32,41,,,30*47
$GPGSV,4,4,15,42,,,29,50,,,30,08,,,*7E
$GLGSV,2,1,07,74,18,158,22,70,08,078,30,86,46,324,35,75,72,180,31*67
$GLGSV,2,2,07,87,21,260,26,85,21,023,41,71,08,126,34*58
$BDGSV,4,1,13,201,43,116,23,203,65,165,27,204,24,102,32,205,31,251,30*6B
$BDGSV,4,2,13,208,50,002,28,211,38,289,27,212,45,009,33,215,,,29*50
$BDGSV,4,3,13,202,51,233,,206,16,154,,207,52,164,,209,06,182,*6F
$BDGSV,4,4,13,210,73,206,*69
$GPGGA,125332.0,2102.298564,N,10552.083748,E,1,05,1.4,21.9,M,-21.0,M,,*4A
$GPVTG,0.0,T,1.5,M,0.0,N,0.0,K,A*27
$GPGSA,A,2,01,03,07,11,30,,,,,,,,1.7,1.4,1.0*37
$GNGSA,A,2,01,03,07,11,30,,,,,,,,1.7,1.4,1.0*29
$GNGSA,A,2,71,,,,,,,,,,,,1.7,1.4,1.0*29
$BDGSA,A,2,,,,,,,,,,,,,1.7,1.4,1.0*20
$GPRMC,125332.0,A,2102.298564,N,10552.083748,E,0.0,0.0,070416,1.5,W,A*15
$GPGSV,4,1,16,01,38,036,42,03,30,106,41,06,27,219,25,07,36,181,34*73
$GPGSV,4,2,16,11,23,039,42,17,39,307,32,19,20,278,29,22,17,068,40*7C
$GPGSV,4,3,16,28,49,350,34,30,57,217,29,,,,30,40,,,32*77
$GPGSV,4,4,16,41,,,30,42,,,29,50,,,30,08,,,*7B
$GLGSV,2,1,07,74,18,158,23,70,08,078,31,86,46,324,37,75,72,180,31*65
$GLGSV,2,2,07,87,21,260,24,85,21,023,40,71,08,126,35*5A
$BDGSV,4,1,13,201,43,116,25,203,65,165,27,204,24,102,32,205,31,251,30*6D
$BDGSV,4,2,13,208,50,002,28,211,38,289,27,212,45,009,34,215,,,29*57
$BDGSV,4,3,13,202,51,233,,206,16,154,,207,52,164,,209,06,182,*6F
$BDGSV,4,4,13,210,73,206,*69
$GPGGA,125333.0,2102.298574,N,10552.084000,E,1,04,1.8,22.9,M,-21.0,M,,*48
$GPVTG,0.0,T,1.5,M,0.0,N,0.0,K,A*27
$GPGSA,A,2,01,03,07,11,,,,,,,,,2.1,1.8,1.0*3D
$GNGSA,A,2,01,03,07,11,,,,,,,,,2.1,1.8,1.0*23
$GNGSA,A,2,71,,,,,,,,,,,,2.1,1.8,1.0*20
$BDGSA,A,2,,,,,,,,,,,,,2.1,1.8,1.0*29
$GPRMC,125333.0,A,2102.298574,N,10552.084000,E,0.0,0.0,070416,1.5,W,A*19
$GPGSV,4,1,16,01,38,036,42,03,30,106,41,06,27,219,24,07,36,181,34*72
$GPGSV,4,2,16,11,23,039,42,17,39,307,32,19,20,278,30,22,17,068,40*74
$GPGSV,4,3,16,28,49,350,34,30,57,217,30,,,,30,40,,,32*7F
$GPGSV,4,4,16,41,,,30,42,,,29,50,,,30,08,,,*7B
$GLGSV,2,1,07,74,18,158,21,70,08,078,27,86,46,324,37,75,72,180,31*60
$GLGSV,2,2,07,87,21,260,21,85,21,023,41,71,08,126,35*5E
$BDGSV,4,1,13,201,43,116,24,203,65,165,28,204,24,102,32,205,31,251,30*63
$BDGSV,4,2,13,208,50,002,29,211,38,289,26,212,45,009,35,215,,,29*56
$BDGSV,4,3,13,202,51,233,,206,16,154,,207,52,164,,209,06,182,*6F
$BDGSV,4,4,13,210,73,206,*69
$GPGGA,125334.0,2102.298619,N,10552.084121,E,1,05,1.4,22.9,M,-21.0,M,,*48
$GPVTG,0.0,T,1.5,M,0.0,N,0.0,K,A*27
$GPGSA,A,2,01,03,07,11,30,,,,,,,,1.7,1.4,1.0*37
$GNGSA,A,2,01,03,07,11,30,,,,,,,,1.7,1.4,1.0*29
$GNGSA,A,2,71,,,,,,,,,,,,1.7,1.4,1.0*29
$BDGSA,A,2,,,,,,,,,,,,,1.7,1.4,1.0*20
$GPRMC,125334.0,A,2102.298619,N,10552.084121,E,0.0,0.0,070416,1.5,W,A*14
$GPGSV,4,1,16,01,38,036,42,03,30,106,41,06,27,219,26,07,36,181,34*70
$GPGSV,4,2,16,11,23,039,41,17,39,307,32,19,20,278,30,22,17,068,40*77
$GPGSV,4,3,16,28,49,350,34,30,57,217,32,,,,30,40,,,32*7D
$GPGSV,4,4,16,41,,,30,42,,,30,50,,,31,08,,,*72
$GLGSV,2,1,07,74,18,158,20,70,08,078,26,86,46,324,36,75,72,180,31*61
$GLGSV,2,2,07,87,21,260,19,85,21,023,40,71,08,126,34*55
$BDGSV,4,1,13,201,43,116,25,203,65,165,28,204,24,102,31,205,31,251,30*61
$BDGSV,4,2,13,208,50,002,29,211,38,289,26,212,45,009,35,215,,,29*56
$BDGSV,4,3,13,202,51,233,,206,16,154,,207,52,164,,209,06,182,*6F
$BDGSV,4,4,13,210,73,206,*69
$GPGGA,125335.0,2102.298658,N,10552.084159,E,1,05,1.4,22.8,M,-21.0,M,,*42
$GPVTG,0.0,T,1.5,M,0.0,N,0.0,K,A*27
$GPGSA,A,2,01,03,07,11,30,,,,,,,,1.7,1.4,1.0*37
$GNGSA,A,2,01,03,07,11,30,,,,,,,,1.7,1.4,1.0*29
$GNGSA,A,2,71,,,,,,,,,,,,1.7,1.4,1.0*29
$BDGSA,A,2,,,,,,,,,,,,,1.7,1.4,1.0*20
$GPRMC,125335.0,A,2102.298658,N,10552.084159,E,0.0,0.0,070416,1.5,W,A*1F
$GPGSV,4,1,16,01,38,036,42,03,30,106,41,06,27,219,26,07,36,181,34*70
$GPGSV,4,2,16,11,23,039,41,17,39,307,32,19,20,278,30,22,17,068,40*77
$GPGSV,4,3,16,28,49,350,34,30,57,217,32,,,,30,40,,,32*7D
$GPGSV,4,4,16,41,,,30,42,,,30,50,,,31,08,,,*72
$GLGSV,2,1,07,74,18,158,20,70,08,078,26,86,46,324,36,75,72,180,31*61
$GLGSV,2,2,07,87,21,260,19,85,21,023,40,71,08,126,34*55
$BDGSV,4,1,13,201,43,116,25,203,65,165,28,204,24,102,31,205,31,251,30*61
$BDGSV,4,2,13,208,50,002,29,211,38,289,26,212,45,009,35,215,,,29*56
$BDGSV,4,3,13,202,51,233,,206,16,154,,207,52,164,,209,06,182,*6F
$BDGSV,4,4,13,210,73,206,*69
$GPGGA,125336.0,2102.298658,N,10552.084159,E,1,05,1.4,22.8,M,-21.0,M,,*41
$GPVTG,0.0,T,1.5,M,0.0,N,0.0,K,A*27
$GPGSA,A,2,01,03,07,11,30,,,,,,,,1.7,1.4,1.0*37
$GNGSA,A,2,01,03,07,11,30,,,,,,,,1.7,1.4,1.0*29
$GNGSA,A,2,71,,,,,,,,,,,,1.7,1.4,1.0*29
$BDGSA,A,2,,,,,,,,,,,,,1.7,1.4,1.0*20
$GPRMC,125336.0,A,2102.298658,N,10552.084159,E,0.0,0.0,070416,1.5,W,A*1C
$GPGSV,4,1,16,01,38,036,42,03,30,106,41,06,27,219,26,07,36,181,34*70
$GPGSV,4,2,16,11,23,039,41,17,39,307,32,19,20,278,30,22,17,068,40*77
$GPGSV,4,3,16,28,49,350,34,30,57,217,32,,,,30,40,,,32*7D
$GPGSV,4,4,16,41,,,30,42,,,30,50,,,31,08,,,*72
$GLGSV,2,1,07,74,18,158,20,70,08,078,26,86,46,324,36,75,72,180,31*61
$GLGSV,2,2,07,87,21,260,19,85,21,023,40,71,08,126,34*55
$BDGSV,4,1,13,201,43,116,25,203,65,165,28,204,24,102,31,205,31,251,30*61
$BDGSV,4,2,13,208,50,002,29,211,38,289,26,212,45,009,35,215,,,29*56
$BDGSV,4,3,13,202,51,233,,206,16,154,,207,52,164,,209,06,182,*6F
$BDGSV,4,4,13,210,73,206,*69
$GPGGA,125337.0,2102.298658,N,10552.084159,E,1,05,1.4,22.8,M,-21.0,M,,*40
$GPVTG,0.0,T,1.5,M,0.0,N,0.0,K,A*27
$GPGSA,A,2,01,03,07,11,30,,,,,,,,1.7,1.4,1.0*37
$GNGSA,A,2,01,03,07,11,30,,,,,,,,1.7,1.4,1.0*29
$GNGSA,A,2,71,,,,,,,,,,,,1.7,1.4,1.0*29
$BDGSA,A,2,,,,,,,,,,,,,1.7,1.4,1.0*20
$GPRMC,125337.0,A,2102.298658,N,10552.084159,E,0.0,0.0,070416,1.5,W,A*1D
$GPGSV,4,1,16,01,38,036,42,03,30,106,41,06,27,219,26,07,36,181,34*70
$GPGSV,4,2,16,11,23,039,41,17,39,307,32,19,20,278,30,22,17,068,40*77
$GPGSV,4,3,16,28,49,350,34,30,57,217,32,,,,30,40,,,32*7D
$GPGSV,4,4,16,41,,,30,42,,,30,50,,,31,08,,,*72
$GLGSV,2,1,07,74,18,158,20,70,08,078,26,86,46,324,36,75,72,180,31*61
$GLGSV,2,2,07,87,21,260,19,85,21,023,40,71,08,126,34*55
$BDGSV,4,1,13,201,43,116,25,203,65,165,28,204,24,102,31,205,31,251,30*61
$BDGSV,4,2,13,208,50,002,29,211,38,289,26,212,45,009,35,215,,,29*56
$BDGSV,4,3,13,202,51,233,,206,16,154,,207,52,164,,209,06,182,*6F
$BDGSV,4,4,13,210,73,206,*69
$GPGGA,125338.0,2102.298658,N,10552.084159,E,1,05,1.4,22.8,M,-21.0,M,,*4F
$GPVTG,0.0,T,1.5,M,0.0,N,0.0,K,A*27
$GPGSA,A,2,01,03,07,11,30,,,,,,,,1.7,1.4,1.0*37
$GNGSA,A,2,01,03,07,11,30,,,,,,,,1.7,1.4,1.0*29
$GNGSA,A,2,71,,,,,,,,,,,,1.7,1.4,1.0*29
$BDGSA,A,2,,,,,,,,,,,,,1.7,1.4,1.0*20
$GPRMC,125338.0,A,2102.298658,N,10552.084159,E,0.0,0.0,070416,1.5,W,A*12
$GPGSV,4,1,16,01,38,036,42,03,30,106,41,06,27,219,26,07,36,181,34*70
$GPGSV,4,2,16,11,23,039,41,17,39,307,32,19,20,278,30,22,17,068,40*77
$GPGSV,4,3,16,28,49,350,34,30,57,217,32,,,,30,40,,,32*7D
$GPGSV,4,4,16,41,,,30,42,,,30,50,,,31,08,,,*72
$GLGSV,2,1,07,74,18,158,20,70,08,078,26,86,46,324,36,75,72,180,31*61
$GLGSV,2,2,07,87,21,260,19,85,21,023,40,71,08,126,34*55
$BDGSV,4,1,13,201,43,116,25,203,65,165,28,204,24,102,31,205,31,251,30*61
$BDGSV,4,2,13,208,50,002,29,211,38,289,26,212,45,009,35,215,,,29*56
$BDGSV,4,3,13,202,51,233,,206,16,154,,207,52,164,,209,06,182,*6F
$BDGSV,4,4,13,210,73,206,*69
$GPGGA,125339.0,2102.298657,N,10552.084158,E,1,05,1.4,22.8,M,-21.0,M,,*40
$GPVTG,0.0,T,1.5,M,0.0,N,0.0,K,A*27
$GPGSA,A,2,01,03,07,11,30,,,,,,,,1.7,1.4,1.0*37
$GNGSA,A,2,01,03,07,11,30,,,,,,,,1.7,1.4,1.0*29
$GNGSA,A,2,71,,,,,,,,,,,,1.7,1.4,1.0*29
$BDGSA,A,2,,,,,,,,,,,,,1.7,1.4,1.0*20
$GPRMC,125339.0,A,2102.298657,N,10552.084158,E,0.0,0.0,070416,1.5,W,A*1D
$GPGSV,4,1,16,01,38,036,42,03,30,106,41,06,27,219,26,07,36,181,34*70
$GPGSV,4,2,16,11,23,039,41,17,39,307,32,19,20,278,30,22,17,068,40*77
$GPGSV,4,3,16,28,49,350,34,30,57,217,32,,,,30,40,,,32*7D
$GPGSV,4,4,16,41,,,30,42,,,30,50,,,31,08,,,*72
$GLGSV,2,1,07,74,18,158,20,70,08,078,26,86,46,324,36,75,72,180,31*61
$GLGSV,2,2,07,87,21,260,19,85,21,023,40,71,08,126,34*55
$BDGSV,4,1,13,201,43,116,25,203,65,165,28,204,24,102,31,205,31,251,30*61
$BDGSV,4,2,13,208,50,002,29,211,38,289,26,212,45,009,35,215,,,29*56
$BDGSV,4,3,13,202,51,233,,206,16,154,,207,52,164,,209,06,182,*6F
$BDGSV,4,4,13,210,73,206,*69
$GPGGA,125340.0,2102.298657,N,10552.084158,E,1,05,1.4,22.8,M,-21.0,M,,*4E
$GPVTG,0.0,T,1.5,M,0.0,N,0.0,K,A*27
$GPGSA,A,2,01,03,07,11,30,,,,,,,,1.7,1.4,1.0*37
$GNGSA,A,2,01,03,07,11,30,,,,,,,,1.7,1.4,1.0*29
$GNGSA,A,2,71,,,,,,,,,,,,1.7,1.4,1.0*29
$BDGSA,A,2,,,,,,,,,,,,,1.7,1.4,1.0*20
$GPRMC,125340.0,A,2102.298657,N,10552.084158,E,0.0,0.0,070416,1.5,W,A*13
$GPGSV,3,1,11,01,,,35,03,,,42,07,,,43,11,,,38*72
$GPGSV,3,2,11,17,,,35,19,,,32,22,,,39,28,,,44*71
$GPGSV,3,3,11,30,,,38,,,,35,41,,,37*76
$GLGSV,1,1,02,70,,,33,85,,,38*66
$BDGSV,1,1,03,203,,,37,205,,,29,207,,,35*51
$GPVTG,,T,,M,,N,,K,N*2C
$GPGSA,A,1,,,,,,,,,,,,,,,*1E
$GNGSA,A,1,,,,,,,,,,,,,,,*00
$BDGSA,A,1,,,,,,,,,,,,,,,*0F
$GPGGA,,,,,,0,,,,,,,,*66
$GPRMC,,V,,,,,,,,,,N*53
$GPGSV,3,1,11,01,,,34,03,,,42,07,,,43,11,,,38*73
$GPGSV,3,2,11,17,,,37,19,,,32,22,,,39,28,,,44*73
$GPGSV,3,3,11,30,,,38,,,,34,41,,,37*77
$GLGSV,1,1,03,70,,,32,85,,,38,71,,,39*6A
$BDGSV,1,1,04,203,,,36,205,,,29,207,,,34,208,,,37*68
$GPVTG,,T,,M,,N,,K,N*2C
$GPGSA,A,1,,,,,,,,,,,,,,,*1E
$GNGSA,A,1,,,,,,,,,,,,,,,*00
$BDGSA,A,1,,,,,,,,,,,,,,,*0F
$GPGGA,,,,,,0,,,,,,,,*66
$GPRMC,,V,,,,,,,,,,N*53
$GPGSV,3,1,11,01,,,32,03,,,42,07,,,43,11,,,36*7B
$GPGSV,3,2,11,17,,,39,19,,,31,22,,,39,28,,,43*79
$GPGSV,3,3,11,30,,,40,,,,32,41,,,38*71
$GLGSV,1,1,03,70,,,31,85,,,41,71,,,43*6A
$BDGSV,1,1,04,203,,,36,205,,,29,207,,,34,208,,,34*6B
$GPVTG,,T,,M,,N,,K,N*2C
$GPGSA,A,1,,,,,,,,,,,,,,,*1E
$GNGSA,A,1,,,,,,,,,,,,,,,*00
$BDGSA,A,1,,,,,,,,,,,,,,,*0F
$GPGGA,,,,,,0,,,,,,,,*66
$GPRMC,,V,,,,,,,,,,N*53
$GPGSV,3,1,11,01,,,33,03,,,42,07,,,43,11,,,36*7A
$GPGSV,3,2,11,17,,,42,19,,,30,22,,,39,28,,,43*74
$GPGSV,3,3,11,30,,,41,,,,30,41,,,38*72
$GLGSV,1,1,03,70,,,30,85,,,40,71,,,44*6D
$BDGSV,2,1,05,203,,,37,205,,,29,207,,,36,208,,,33*6D
$BDGSV,2,2,05,211,,,33*5F
$GPVTG,,T,,M,,N,,K,N*2C
$GPGSA,A,1,,,,,,,,,,,,,,,*1E
$GNGSA,A,1,,,,,,,,,,,,,,,*00
$BDGSA,A,1,,,,,,,,,,,,,,,*0F
$GPGGA,,,,,,0,,,,,,,,*66
$GPRMC,,V,,,,,,,,,,N*53
$GPGSV,3,1,11,01,,,31,03,,,41,07,,,41,11,,,38*77
$GPGSV,3,2,11,17,,,41,19,,,30,22,,,39,28,,,44*70
$GPGSV,3,3,11,30,,,38,,,,32,41,,,35*73
$GLGSV,1,1,03,70,,,31,85,,,39,71,,,41*67
$BDGSV,2,1,05,203,,,36,205,,,29,207,,,33,208,,,36*6C
$BDGSV,2,2,05,211,,,35*59
$GPVTG,,T,,M,,N,,K,N*2C
$GPGSA,A,1,,,,,,,,,,,,,,,*1E
$GNGSA,A,1,,,,,,,,,,,,,,,*00
$BDGSA,A,1,,,,,,,,,,,,,,,*0F
$GPGGA,,,,,,0,,,,,,,,*66
$GPRMC,,V,,,,,,,,,,N*53
$GPGSV,3,1,11,01,,,33,03,,,41,07,,,40,11,,,38*74
$GPGSV,3,2,11,17,,,42,19,,,32,22,,,38,28,,,44*70
$GPGSV,3,3,11,30,,,36,,,,33,41,,,34*7D
$GLGSV,1,1,03,70,,,34,85,,,39,71,,,40*63
$BDGSV,2,1,05,203,,,36,205,,,29,207,,,33,208,,,37*6D
$BDGSV,2,2,05,211,,,35*59
$GPVTG,,T,,M,,N,,K,N*2C
$GPGSA,A,1,,,,,,,,,,,,,,,*1E
$GNGSA,A,1,,,,,,,,,,,,,,,*00
$BDGSA,A,1,,,,,,,,,,,,,,,*0F
$GPGGA,,,,,,0,,,,,,,,*66
$GPRMC,,V,,,,,,,,,,N*53
$GPGSV,3,1,11,01,,,33,03,,,42,07,,,40,11,,,38*77
$GPGSV,3,2,11,17,,,41,19,,,29,22,,,39,28,,,44*78
$GPGSV,3,3,11,30,,,36,,,,31,41,,,35*7E
$GLGSV,1,1,03,70,,,31,85,,,40,71,,,41*69
$BDGSV,2,1,06,203,,,36,205,,,29,207,,,33,208,,,36*6F
$BDGSV,2,2,06,211,,,34,215,,,35*6B
$GPVTG,,T,,M,,N,,K,N*2C
$GPGSA,A,1,,,,,,,,,,,,,,,*1E
$GNGSA,A,1,,,,,,,,,,,,,,,*00
$BDGSA,A,1,,,,,,,,,,,,,,,*0F
$GPGGA,,,,,,0,,,,,,,,*66
$GPRMC,,V,,,,,,,,,,N*53
$GPGSV,3,1,11,01,,,31,03,,,41,07,,,41,11,,,38*77
$GPGSV,3,2,11,17,,,41,19,,,29,22,,,39,28,,,44*78
$GPGSV,3,3,11,30,,,37,,,,32,41,,,35*7C
$GLGSV,1,1,03,70,,,31,85,,,40,71,,,40*68
$BDGSV,2,1,06,203,,,36,205,,,29,207,,,33,208,,,36*6F
$BDGSV,2,2,06,211,,,33,215,,,34*6D
$GPVTG,,T,,M,,N,,K,N*2C
$GPGSA,A,1,,,,,,,,,,,,,,,*1E
$GNGSA,A,1,,,,,,,,,,,,,,,*00
$BDGSA,A,1,,,,,,,,,,,,,,,*0F
$GPGGA,,,,,,0,,,,,,,,*66
$GPRMC,,V,,,,,,,,,,N*53
$GPGSV,3,1,11,01,,,34,03,,,41,07,,,41,11,,,36*7C
$GPGSV,3,2,11,17,,,41,19,,,31,22,,,38,28,,,44*70
$GPGSV,3,3,11,30,,,37,,,,31,41,,,36*7C
$GLGSV,1,1,03,70,,,31,85,,,39,71,,,40*66
$BDGSV,2,1,06,203,,,36,205,,,29,207,,,34,208,,,36*68
$BDGSV,2,2,06,211,,,35,215,,,34*6B
$GPVTG,,T,,M,,N,,K,N*2C
$GPGSA,A,1,,,,,,,,,,,,,,,*1E
$GNGSA,A,1,,,,,,,,,,,,,,,*00
$BDGSA,A,1,,,,,,,,,,,,,,,*0F
$GPGGA,,,,,,0,,,,,,,,*66
$GPRMC,,V,,,,,,,,,,N*53
$GPGSV,3,1,11,01,,,33,03,,,40,07,,,41,11,,,38*74
$GPGSV,3,2,11,17,,,40,19,,,31,22,,,37,28,,,44*7E
$GPGSV,3,3,11,30,,,36,,,,32,41,,,35*7D
$GLGSV,1,1,04,70,,,30,86,,,41,85,,,39,71,,,40*6B
$BDGSV,2,1,06,203,,,36,205,,,29,207,,,34,208,,,36*68
$BDGSV,2,2,06,211,,,33,215,,,34*6D
$GPVTG,,T,,M,,N,,K,N*2C
$GPGSA,A,1,,,,,,,,,,,,,,,*1E
$GNGSA,A,1,,,,,,,,,,,,,,,*00
$BDGSA,A,1,,,,,,,,,,,,,,,*0F
$GPGGA,,,,,,0,,,,,,,,*66
$GPRMC,,V,,,,,,,,,,N*53
$GPGSV,3,1,11,01,,,38,03,,,40,07,,,41,11,,,38*7F
$GPGSV,3,2,11,17,,,33,19,,,32,22,,,37,28,,,44*79
$GPGSV,3,3,11,30,,,34,,,,35,41,,,33*7E
$GLGSV,1,1,04,70,,,32,86,,,42,85,,,39,71,,,40*6A
$BDGSV,2,1,06,203,,,35,205,,,29,207,,,32,208,,,38*63
$BDGSV,2,2,06,211,,,35,215,,,34*6B
$GPVTG,,T,,M,,N,,K,N*2C
$GPGSA,A,1,,,,,,,,,,,,,,,*1E
$GNGSA,A,1,,,,,,,,,,,,,,,*00
$BDGSA,A,1,,,,,,,,,,,,,,,*0F
$GPGGA,,,,,,0,,,,,,,,*66
$GPRMC,,V,,,,,,,,,,N*53
$GPGSV,4,1,14,01,38,036,35,03,30,106,40,07,36,181,41,11,23,039,38*7C
$GPGSV,4,2,14,17,39,307,34,19,20,278,32,22,17,068,36,28,49,350,44*7F
$GPGSV,4,3,14,30,57,217,32,,,,35,41,,,34,06,27,219,*72
$GPGSV,4,4,14,08,,,,13,,,*76
$GLGSV,1,1,04,70,,,30,86,,,42,85,,,36,71,,,40*67
$BDGSV,2,1,06,203,,,34,205,,,29,207,,,32,208,,,38*62
$BDGSV,2,2,06,211,,,34,215,,,35*6B
$GPVTG,,T,,M,,N,,K,N*2C
$GPGSA,A,1,,,,,,,,,,,,,,,*1E
$GNGSA,A,1,,,,,,,,,,,,,,,*00
$BDGSA,A,1,,,,,,,,,,,,,,,*0F
$GPGGA,,,,,,0,,,,,,,,*66
$GPRMC,,V,,,,,,,,,,N*53
$GPGSV,4,1,14,01,37,036,36,03,30,105,38,06,27,219,29,07,36,181,40*7F
$GPGSV,4,2,14,11,23,039,36,17,39,307,33,19,20,278,31,22,17,068,36*74
$GPGSV,4,3,14,28,50,350,43,30,57,217,33,,,,35,41,,,33*73
$GPGSV,4,4,14,08,,,,13,,,*76
$GLGSV,2,1,07,70,08,078,31,86,46,324,39,75,71,180,36,85,21,025,37*65
$GLGSV,2,2,07,71,08,126,40,74,18,158,,87,21,260,*53
$BDGSV,4,1,13,203,65,165,35,205,31,251,29,207,51,164,31,208,50,002,37*68
$BDGSV,4,2,13,211,38,291,35,215,,,34,201,43,116,,202,51,233,*5C
$BDGSV,4,3,13,204,24,102,,206,16,154,,209,06,182,,210,73,206,*68
$BDGSV,4,4,13,212,45,009,*63
$GPGGA,125352.0,2102.298044,N,10552.084398,E,1,05,1.2,20.9,M,-21.0,M,,*42
$GPVTG,0.0,T,1.5,M,0.0,N,0.0,K,A*27
$GPGSA,A,2,01,03,07,11,30,,,,,,,,1.5,1.2,0.9*3B
$GNGSA,A,2,01,03,07,11,30,,,,,,,,1.5,1.2,0.9*25
$GNGSA,A,2,75,85,71,,,,,,,,,,1.5,1.2,0.9*2A
$BDGSA,A,2,,,,,,,,,,,,,1.5,1.2,0.9*2C
$GPRMC,125352.0,A,2102.298044,N,10552.084398,E,0.0,0.0,070416,1.5,W,A*1A
$GPGSV,4,1,14,01,37,036,31,03,30,105,39,06,27,219,31,07,36,181,40*70
$GPGSV,4,2,14,11,23,039,38,17,39,307,36,19,20,278,28,22,17,068,36*77
$GPGSV,4,3,14,28,50,350,42,30,57,217,36,,,,34,41,,,35*70
$GPGSV,4,4,14,08,,,,13,,,*76
$GLGSV,2,1,07,70,08,078,29,86,46,324,40,75,71,180,35,87,21,260,31*66
$GLGSV,2,2,07,85,21,025,37,71,08,126,39,74,18,158,*58
$BDGSV,4,1,13,203,65,165,35,205,31,251,29,207,51,164,33,208,50,002,35*68
$BDGSV,4,2,13,211,38,291,32,215,,,33,201,43,116,,202,51,233,*5C
$BDGSV,4,3,13,204,24,102,,206,16,154,,209,06,182,,210,73,206,*68
$BDGSV,4,4,13,212,45,009,*63
$GPGGA,125353.0,2102.298090,N,10552.084423,E,1,05,1.2,21.4,M,-21.0,M,,*41
$GPVTG,0.0,T,1.5,M,0.0,N,0.0,K,A*27
$GPGSA,A,2,01,03,07,11,30,,,,,,,,1.5,1.2,0.9*3B
$GNGSA,A,2,01,03,07,11,30,,,,,,,,1.5,1.2,0.9*25
$GNGSA,A,2,75,85,71,,,,,,,,,,1.5,1.2,0.9*2A
$BDGSA,A,2,,,,,,,,,,,,,1.5,1.2,0.9*2C
$GPRMC,125353.0,A,2102.298090,N,10552.084423,E,0.0,0.0,070416,1.5,W,A*15
$GPGSV,4,1,14,01,37,036,33,03,30,105,39,06,27,219,32,07,36,181,41*70
$GPGSV,4,2,14,11,23,039,39,17,39,307,35,19,20,278,28,22,17,068,37*74
$GPGSV,4,3,14,28,50,350,43,30,57,217,37,,,,35,41,,,35*71
$GPGSV,4,4,14,08,,,,13,,,*76
$GLGSV,2,1,07,70,08,078,29,86,46,324,41,75,71,180,36,87,21,260,31*64
$GLGSV,2,2,07,85,21,025,38,71,08,126,40,74,18,158,*59
$BDGSV,4,1,13,203,65,165,36,205,31,251,29,207,51,164,33,208,50,002,35*6B
$BDGSV,4,2,13,211,38,291,34,215,,,34,201,43,116,,202,51,233,*5D
$BDGSV,4,3,13,204,24,102,,206,16,154,,209,06,182,,210,73,206,*68
$BDGSV,4,4,13,212,45,009,*63
$GPGGA,125354.0,2102.298206,N,10552.084545,E,1,05,1.2,20.7,M,-21.0,M,,*48
$GPVTG,0.0,T,1.5,M,0.0,N,0.0,K,A*27
$GPGSA,A,2,01,03,07,11,30,,,,,,,,1.5,1.2,0.9*3B
$GNGSA,A,2,01,03,07,11,30,,,,,,,,1.5,1.2,0.9*25
$GNGSA,A,2,75,85,71,,,,,,,,,,1.5,1.2,0.9*2A
$BDGSA,A,2,,,,,,,,,,,,,1.5,1.2,0.9*2C
$GPRMC,125354.0,A,2102.298206,N,10552.084545,E,0.0,0.0,070416,1.5,W,A*1E
$GPGSV,4,1,14,01,37,036,34,03,30,105,39,06,27,219,30,07,36,181,40*74
$GPGSV,4,2,14,11,23,039,37,17,39,307,34,19,20,278,29,22,17,068,35*78
$GPGSV,4,3,14,28,50,350,42,30,57,217,34,,,,34,41,,,33*74
$GPGSV,4,4,14,08,,,,13,,,*76
$GLGSV,2,1,07,70,08,078,28,86,46,324,39,75,71,180,35,87,21,260,30*68
$GLGSV,2,2,07,85,21,025,38,71,08,126,39,74,18,158,*57
$BDGSV,4,1,13,203,65,165,36,205,31,251,29,207,51,164,32,208,50,002,36*69
$BDGSV,4,2,13,211,38,291,33,215,,,33,201,43,116,,202,51,233,*5D
$BDGSV,4,3,13,204,24,102,,206,16,154,,209,06,182,,210,73,206,*68
$BDGSV,4,4,13,212,45,009,*63
$GPGGA,125355.0,2102.298341,N,10552.084627,E,1,05,1.2,19.6,M,-21.0,M,,*47
$GPVTG,0.0,T,1.5,M,0.0,N,0.0,K,A*27
$GPGSA,A,2,01,03,07,11,30,,,,,,,,1.5,1.2,0.9*3B
$GNGSA,A,2,01,03,07,11,30,,,,,,,,1.5,1.2,0.9*25
$GNGSA,A,2,75,85,71,,,,,,,,,,1.5,1.2,0.9*2A
$BDGSA,A,2,,,,,,,,,,,,,1.5,1.2,0.9*2C
$GPRMC,125355.0,A,2102.298341,N,10552.084627,E,0.0,0.0,070416,1.5,W,A*1A
$GPGSV,4,1,14,01,37,036,35,03,30,105,39,06,27,219,30,07,36,181,41*74
$GPGSV,4,2,14,11,23,039,38,17,39,307,34,19,20,278,30,22,17,067,35*70
$GPGSV,4,3,14,28,50,350,43,30,57,217,35,,,,35,41,,,34*72
$GPGSV,4,4,14,08,,,,13,,,*76
$GLGSV,2,1,07,70,08,078,29,86,46,324,40,75,71,180,36,87,21,260,31*65
$GLGSV,2,2,07,85,21,025,39,71,08,126,40,74,18,158,*58
$BDGSV,4,1,13,203,65,165,36,205,31,251,29,207,51,164,33,208,50,002,36*68
$BDGSV,4,2,13,211,38,291,33,215,,,34,201,43,116,,202,51,233,*5A
$BDGSV,4,3,13,204,24,102,,206,16,154,,209,06,182,,210,73,206,*68
$BDGSV,4,4,13,212,45,009,*63
$GPGGA,125356.0,2102.298383,N,10552.084919,E,1,07,1.1,20.1,M,-21.0,M,,*44
$GPVTG,0.0,T,1.5,M,0.0,N,0.0,K,A*27
$GPGSA,A,2,01,03,07,11,22,28,30,,,,,,1.4,1.1,0.9*33
$GNGSA,A,2,01,03,07,11,22,28,30,,,,,,1.4,1.1,0.9*2D
$GNGSA,A,2,75,85,71,,,,,,,,,,1.4,1.1,0.9*28
$BDGSA,A,2,,,,,,,,,,,,,1.4,1.1,0.9*2E
$GPRMC,125356.0,A,2102.298383,N,10552.084919,E,0.0,0.0,070416,1.5,W,A*15
$GPGSV,4,1,13,01,37,036,36,03,30,105,40,06,27,219,30,07,36,181,42*7D
$GPGSV,4,2,13,11,23,039,39,17,39,307,35,19,20,278,30,22,17,067,35*77
$GPGSV,4,3,13,28,50,350,43,30,57,217,35,,,,35,41,,,34*75
$GPGSV,4,4,13,08,,,*73
$GLGSV,2,1,07,70,08,078,32,86,46,324,41,75,71,180,37,87,21,260,32*6C
$GLGSV,2,2,07,85,21,025,40,71,08,126,40,74,18,158,*56
$BDGSV,4,1,13,203,65,165,36,205,31,251,29,207,51,164,33,208,50,002,37*69
$BDGSV,4,2,13,211,38,291,34,215,,,35,201,43,116,,202,51,233,*5C
$BDGSV,4,3,13,204,24,102,,206,16,154,,209,06,182,,210,73,206,*68
$BDGSV,4,4,13,212,45,009,*63
$GPGGA,125357.0,2102.298615,N,10552.084901,E,1,07,1.1,20.5,M,-21.0,M,,*42
$GPVTG,0.0,T,1.5,M,0.0,N,0.0,K,A*27
$GPGSA,A,2,01,03,07,11,22,28,30,,,,,,1.4,1.1,0.9*33
$GNGSA,A,2,01,03,07,11,22,28,30,,,,,,1.4,1.1,0.9*2D
$GNGSA,A,2,75,85,71,,,,,,,,,,1.4,1.1,0.9*28
$BDGSA,A,2,,,,,,,,,,,,,1.4,1.1,0.9*2E
$GPRMC,125357.0,A,2102.298615,N,10552.084901,E,0.0,0.0,070416,1.5,W,A*17
$GPGSV,4,1,14,01,37,036,34,03,30,105,38,06,27,219,29,07,36,181,40*7D
$GPGSV,4,2,14,11,23,039,37,17,39,307,34,19,20,278,29,22,17,067,34*76
$GPGSV,4,3,14,28,50,350,41,30,57,217,34,,,,33,41,,,32*71
$GPGSV,4,4,14,08,,,,13,,,*76
$GLGSV,2,1,07,70,08,078,28,86,46,324,39,75,71,180,35,87,21,260,30*68
$GLGSV,2,2,07,85,21,025,38,71,08,126,39,74,18,158,*57
$BDGSV,4,1,13,203,65,165,35,205,31,251,29,207,51,164,31,208,50,002,35*6A
$BDGSV,4,2,13,211,38,291,33,215,,,33,201,43,116,,202,51,233,*5D
$BDGSV,4,3,13,204,24,102,,206,16,154,,209,06,182,,210,73,206,*68
$BDGSV,4,4,13,212,45,009,*63
$GPGGA,125358.0,2102.298854,N,10552.084660,E,1,07,1.1,20.4,M,-21.0,M,,*4F
$GPVTG,0.0,T,1.5,M,0.0,N,0.0,K,A*27
$GPGSA,A,2,01,03,07,11,22,28,30,,,,,,1.4,1.1,0.9*33
$GNGSA,A,2,01,03,07,11,22,28,30,,,,,,1.4,1.1,0.9*2D
$GNGSA,A,2,75,85,71,,,,,,,,,,1.4,1.1,0.9*28
$BDGSA,A,2,,,,,,,,,,,,,1.4,1.1,0.9*2E
$GPRMC,125358.0,A,2102.298854,N,10552.084660,E,0.0,0.0,070416,1.5,W,A*1B
$GPGSV,4,1,15,01,37,036,39,03,30,105,41,06,27,219,29,07,36,181,43*7C
$GPGSV,4,2,15,11,23,039,37,17,39,307,38,19,20,278,27,22,17,067,35*74
$GPGSV,4,3,15,28,50,350,44,30,57,217,36,,,,35,41,,,34*77
$GPGSV,4,4,15,42,,,31,08,,,,13,,,*73
$GLGSV,2,1,07,70,08,078,25,86,46,324,43,75,71,180,36,87,21,260,25*6F
$GLGSV,2,2,07,85,21,025,39,71,08,126,43,74,18,158,*5B
$BDGSV,4,1,13,203,65,165,36,205,31,251,29,207,51,164,34,208,50,002,36*6F
$BDGSV,4,2,13,211,38,291,33,215,,,34,201,43,116,,202,51,233,*5A
$BDGSV,4,3,13,204,24,102,,206,16,154,,209,06,182,,210,73,206,*68
$BDGSV,4,4,13,212,45,009,*63
$GPGGA,125359.0,2102.298919,N,10552.084042,E,1,07,1.1,18.1,M,-21.0,M,,*4E
$GPVTG,0.0,T,1.5,M,0.0,N,0.0,K,A*27
$GPGSA,A,2,01,03,07,11,22,28,30,,,,,,1.4,1.1,0.9*33
$GNGSA,A,2,01,03,07,11,22,28,30,,,,,,1.4,1.1,0.9*2D
$GNGSA,A,2,75,85,71,,,,,,,,,,1.4,1.1,0.9*28
$BDGSA,A,2,,,,,,,,,,,,,1.4,1.1,0.9*2E
$GPRMC,125359.0,A,2102.298919,N,10552.084042,E,0.0,0.0,070416,1.5,W,A*14
$GPGSV,4,1,15,01,37,036,39,03,30,105,41,06,27,219,29,07,36,181,43*7C
$GPGSV,4,2,15,11,23,039,37,17,39,307,38,19,20,278,27,22,17,067,35*74
$GPGSV,4,3,15,28,50,350,44,30,57,217,36,,,,35,41,,,34*77
$GPGSV,4,4,15,42,,,31,08,,,,13,,,*73
$GLGSV,2,1,07,70,08,078,25,86,46,324,43,75,71,180,36,87,21,260,25*6F
$GLGSV,2,2,07,85,21,025,39,71,08,126,43,74,18,158,*5B
$BDGSV,4,1,13,203,65,165,36,205,31,251,29,207,51,164,34,208,50,002,36*6F
$BDGSV,4,2,13,211,38,291,33,215,,,34,201,43,116,,202,51,233,*5A
$BDGSV,4,3,13,204,24,102,,206,16,154,,209,06,182,,210,73,206,*68
$BDGSV,4,4,13,212,45,009,*63
$GPGGA,125400.0,2102.298919,N,10552.084042,E,1,07,1.1,18.1,M,-21.0,M,,*45
$GPVTG,0.0,T,1.5,M,0.0,N,0.0,K,A*27
$GPGSA,A,2,01,03,07,11,22,28,30,,,,,,1.4,1.1,0.9*33
$GNGSA,A,2,01,03,07,11,22,28,30,,,,,,1.4,1.1,0.9*2D
$GNGSA,A,2,75,85,71,,,,,,,,,,1.4,1.1,0.9*28
$BDGSA,A,2,,,,,,,,,,,,,1.4,1.1,0.9*2E
$GPRMC,125400.0,A,2102.298919,N,10552.084042,E,0.0,0.0,070416,1.5,W,A*1F
$GPGSV,4,1,15,01,37,036,39,03,30,105,41,06,27,219,29,07,36,181,43*7C
$GPGSV,4,2,15,11,23,039,37,17,39,307,38,19,20,278,27,22,17,067,35*74
$GPGSV,4,3,15,28,50,350,44,30,57,217,36,,,,35,41,,,34*77
$GPGSV,4,4,15,42,,,31,08,,,,13,,,*73
$GLGSV,2,1,07,70,08,078,25,86,46,324,43,75,71,180,36,87,21,260,25*6F
$GLGSV,2,2,07,85,21,025,39,71,08,126,43,74,18,158,*5B
$BDGSV,4,1,13,203,65,165,36,205,31,251,29,207,51,164,34,208,50,002,36*6F
$BDGSV,4,2,13,211,38,291,33,215,,,34,201,43,116,,202,51,233,*5A
$BDGSV,4,3,13,204,24,102,,206,16,154,,209,06,182,,210,73,206,*68
$BDGSV,4,4,13,212,45,009,*63
$GPGGA,125401.0,2102.298919,N,10552.084041,E,1,07,1.1,18.0,M,-21.0,M,,*46
$GPVTG,0.0,T,1.5,M,0.0,N,0.0,K,A*27
$GPGSA,A,2,01,03,07,11,22,28,30,,,,,,1.4,1.1,0.9*33
$GNGSA,A,2,01,03,07,11,22,28,30,,,,,,1.4,1.1,0.9*2D
$GNGSA,A,2,75,85,71,,,,,,,,,,1.4,1.1,0.9*28
$BDGSA,A,2,,,,,,,,,,,,,1.4,1.1,0.9*2E
$GPRMC,125401.0,A,2102.298919,N,10552.084041,E,0.0,0.0,070416,1.5,W,A*1D
$GPGSV,4,1,15,01,37,036,39,03,30,105,41,06,27,219,29,07,36,181,43*7C
$GPGSV,4,2,15,11,23,039,37,17,39,307,38,19,20,278,27,22,17,067,35*74
$GPGSV,4,3,15,28,50,350,44,30,57,217,36,,,,35,41,,,34*77
$GPGSV,4,4,15,42,,,31,08,,,,13,,,*73
$GLGSV,2,1,07,70,08,078,25,86,46,324,43,75,71,180,36,87,21,260,25*6F
$GLGSV,2,2,07,85,21,025,39,71,08,126,43,74,18,158,*5B
$BDGSV,4,1,13,203,65,165,36,205,31,251,29,207,51,164,34,208,50,002,36*6F
$BDGSV,4,2,13,211,38,291,33,215,,,34,201,43,116,,202,51,233,*5A
$BDGSV,4,3,13,204,24,102,,206,16,154,,209,06,182,,210,73,206,*68
$BDGSV,4,4,13,212,45,009,*63
$GPGGA,125402.0,2102.298919,N,10552.084041,E,1,07,1.1,18.0,M,-21.0,M,,*45
$GPVTG,0.0,T,1.5,M,0.0,N,0.0,K,A*27
$GPGSA,A,2,01,03,07,11,22,28,30,,,,,,1.4,1.1,0.9*33
$GNGSA,A,2,01,03,07,11,22,28,30,,,,,,1.4,1.1,0.9*2D
$GNGSA,A,2,75,85,71,,,,,,,,,,1.4,1.1,0.9*28
$BDGSA,A,2,,,,,,,,,,,,,1.4,1.1,0.9*2E
$GPRMC,125402.0,A,2102.298919,N,10552.084041,E,0.0,0.0,070416,1.5,W,A*1E
$GPGSV,4,1,15,01,37,036,39,03,30,105,41,06,27,219,29,07,36,181,43*7C
$GPGSV,4,2,15,11,23,039,37,17,39,307,38,19,20,278,27,22,17,067,35*74
$GPGSV,4,3,15,28,50,350,44,30,57,217,36,,,,35,41,,,34*77
$GPGSV,4,4,15,42,,,31,08,,,,13,,,*73
$GLGSV,2,1,07,70,08,078,25,86,46,324,43,75,71,180,36,87,21,260,25*6F
$GLGSV,2,2,07,85,21,025,39,71,08,126,43,74,18,158,*5B
$BDGSV,4,1,13,203,65,165,36,205,31,251,29,207,51,164,34,208,50,002,36*6F
$BDGSV,4,2,13,211,38,291,33,215,,,34,201,43,116,,202,51,233,*5A
$BDGSV,4,3,13,204,24,102,,206,16,154,,209,06,182,,210,73,206,*68
$BDGSV,4,4,13,212,45,009,*63
$GPGGA,125403.0,2102.298919,N,10552.084041,E,1,07,1.1,18.0,M,-21.0,M,,*44
$GPVTG,0.0,T,1.5,M,0.0,N,0.0,K,A*27
$GPGSA,A,2,01,03,07,11,22,28,30,,,,,,1.4,1.1,0.9*33
$GNGSA,A,2,01,03,07,11,22,28,30,,,,,,1.4,1.1,0.9*2D
$GNGSA,A,2,75,85,71,,,,,,,,,,1.4,1.1,0.9*28
$BDGSA,A,2,,,,,,,,,,,,,1.4,1.1,0.9*2E
$GPRMC,125403.0,A,2102.298919,N,10552.084041,E,0.0,0.0,070416,1.5,W,A*1F
$GPGSV,4,1,15,01,37,036,39,03,30,105,41,06,27,219,29,07,36,181,43*7C
$GPGSV,4,2,15,11,23,039,37,17,39,307,38,19,20,278,27,22,17,067,35*74
$GPGSV,4,3,15,28,50,350,44,30,57,217,36,,,,35,41,,,34*77
$GPGSV,4,4,15,42,,,31,08,,,,13,,,*73
$GLGSV,2,1,07,70,08,078,25,86,46,324,43,75,71,180,36,87,21,260,25*6F
$GLGSV,2,2,07,85,21,025,39,71,08,126,43,74,18,158,*5B
$BDGSV,4,1,13,203,65,165,36,205,31,251,29,207,51,164,34,208,50,002,36*6F
$BDGSV,4,2,13,211,38,291,33,215,,,34,201,43,116,,202,51,233,*5A
$BDGSV,4,3,13,204,24,102,,206,16,154,,209,06,182,,210,73,206,*68
$BDGSV,4,4,13,212,45,009,*63
$GPGGA,125404.0,2102.298919,N,10552.084041,E,1,07,1.1,18.0,M,-21.0,M,,*43
$GPVTG,0.0,T,1.5,M,0.0,N,0.0,K,A*27
$GPGSA,A,2,01,03,07,11,22,28,30,,,,,,1.4,1.1,0.9*33
$GNGSA,A,2,01,03,07,11,22,28,30,,,,,,1.4,1.1,0.9*2D
